[{"id": "oawi_lbMNDcY0IGag38deA", "alias": "bryant-companies-south-pasadena", "name": "Bryant Companies", "image_url": "https://s3-media3.fl.yelpcdn.com/bphoto/CnD7k9AlWQsKd1LY_9ZROQ/o.jpg", "is_closed": false, "url": "https://www.yelp.com/biz/bryant-companies-south-pasadena?adjust_creative=y4osxHmnMD1pXQYRCP96Jg&utm_campaign=yelp_api_v3&utm_medium=api_v3_business_search&utm_source=y4osxHmnMD1pXQYRCP96Jg", "review_count": 58, "categories": [{"alias": "propertymgmt", "title": "Property Management"}, {"alias": "realestateagents", "title": "Real Estate Agents"}], "rating": 3.5, "coordinates": {"latitude": 34.1162067, "longitude": -118.1502051}, "transactions": [], "location": {"address1": "812 Fair Oaks Ave", "address2": null, "address3": null, "city": "South Pasadena", "zip_code": "91030", "country": "US", "state": "CA", "display_address": ["812 Fair Oaks Ave", "South Pasadena, CA 91030"]}, "phone": "+16264413141", "display_phone": "(626) 441-3141", "distance": 30.77802004248578}, {"id": "0CwyIHvSA0l5I-cRn31FVA", "alias": "marc-ellis-trusted-real-estate-advsior-south-pasadena", "name": "Marc Ellis - Trusted Real Estate Advsior", "image_url": "https://s3-media3.fl.yelpcdn.com/bphoto/QYzaDElzXnNostixLb3WmA/o.jpg", "is_closed": false, "url": "https://www.yelp.com/biz/marc-ellis-trusted-real-estate-advsior-south-pasadena?adjust_creative=y4osxHmnMD1pXQYRCP96Jg&utm_campaign=yelp_api_v3&utm_medium=api_v3_business_search&utm_source=y4osxHmnMD1pXQYRCP96Jg", "review_count": 7, "categories": [{"alias": "realestateagents", "title": "Real Estate Agents"}], "rating": 4.5, "coordinates": {"latitude": 34.1163128, "longitude": -118.1500862}, "transactions": [], "location": {"address1": "812 Fair Oaks Ave", "address2": "", "address3": "", "city": "South Pasadena", "zip_code": "91030", "country": "US", "state": "CA", "display_address": ["812 Fair Oaks Ave", "South Pasadena, CA 91030"]}, "phone": "+16263186844", "display_phone": "(626) 318-6844", "distance": 30.77802004248578}, {"id": "UcBSKq9E7ki9CHSJfftiAw", "alias": "bank-of-america-south-pasadena", "name": "Bank of America", "image_url": "https://s3-media1.fl.yelpcdn.com/bphoto/o4eA1PIeIZv_utQExY237g/o.jpg", "is_closed": false, "url": "https://www.yelp.com/biz/bank-of-america-south-pasadena?adjust_creative=y4osxHmnMD1pXQYRCP96Jg&utm_campaign=yelp_api_v3&utm_medium=api_v3_business_search&utm_source=y4osxHmnMD1pXQYRCP96Jg", "review_count": 30, "categories": [{"alias": "banks", "title": "Banks & Credit Unions"}], "rating": 2.5, "coordinates": {"latitude": 34.1151452, "longitude": -118.1504949}, "transactions": [], "location": {"address1": "929 Fair Oaks Ave", "address2": "", "address3": "", "city": "South Pasadena", "zip_code": "91030", "country": "US", "state": "CA", "display_address": ["929 Fair Oaks Ave", "South Pasadena, CA 91030"]}, "phone": "+16265785125", "display_phone": "(626) 578-5125", "distance": 122.0040355433723}, {"id": "pSmaK2-HKpt8imgY-u8JYA", "alias": "east-west-bank-south-pasadena", "name": "East West Bank", "image_url": "https://s3-media2.fl.yelpcdn.com/bphoto/HAoLEhUDAp6A7f3HRs0NQA/o.jpg", "is_closed": false, "url": "https://www.yelp.com/biz/east-west-bank-south-pasadena?adjust_creative=y4osxHmnMD1pXQYRCP96Jg&utm_campaign=yelp_api_v3&utm_medium=api_v3_business_search&utm_source=y4osxHmnMD1pXQYRCP96Jg", "review_count": 8, "categories": [{"alias": "banks", "title": "Banks & Credit Unions"}], "rating": 3.0, "coordinates": {"latitude": 34.1146699, "longitude": -118.15077}, "transactions": [], "location": {"address1": "1001 Fair Oaks Ave", "address2": "", "address3": "", "city": "South Pasadena", "zip_code": "91030", "country": "US", "state": "CA", "display_address": ["1001 Fair Oaks Ave", "South Pasadena, CA 91030"]}, "phone": "+13236823831", "display_phone": "(323) 682-3831", "distance": 163.8470955183949}, {"id": "pA2h8qlnM4muY747mqgrNQ", "alias": "independent-capital-management-south-pasadena", "name": "Independent Capital Management", "image_url": "", "is_closed": false, "url": "https://www.yelp.com/biz/independent-capital-management-south-pasadena?adjust_creative=y4osxHmnMD1pXQYRCP96Jg&utm_campaign=yelp_api_v3&utm_medium=api_v3_business_search&utm_source=y4osxHmnMD1pXQYRCP96Jg", "review_count": 2, "categories": [{"alias": "investing", "title": "Investing"}], "rating": 3.0, "coordinates": {"latitude": 34.118091583252, "longitude": -118.151138305664}, "transactions": [], "location": {"address1": "625 Fair Oaks Ave", "address2": "Ste 290", "address3": "", "city": "South Pasadena", "zip_code": "91030", "country": "US", "state": "CA", "display_address": ["625 Fair Oaks Ave", "Ste 290", "South Pasadena, CA 91030"]}, "phone": "+16264411426", "display_phone": "(626) 441-1426", "distance": 236.82282708192292}, {"id": "79teK6sQSjmyLIjvZsaKEQ", "alias": "chase-bank-south-pasadena-2", "name": "Chase Bank", "image_url": "https://s3-media1.fl.yelpcdn.com/bphoto/4315tNS86XzUEsQ09SFMsA/o.jpg", "is_closed": false, "url": "https://www.yelp.com/biz/chase-bank-south-pasadena-2?adjust_creative=y4osxHmnMD1pXQYRCP96Jg&utm_campaign=yelp_api_v3&utm_medium=api_v3_business_search&utm_source=y4osxHmnMD1pXQYRCP96Jg", "review_count": 17, "categories": [{"alias": "banks", "title": "Banks & Credit Unions"}], "rating": 3.0, "coordinates": {"latitude": 34.11081, "longitude": -118.150853}, "transactions": [], "location": {"address1": "1305 Fair Oaks Ave", "address2": null, "address3": null, "city": "South Pasadena", "zip_code": "91030", "country": "US", "state": "CA", "display_address": ["1305 Fair Oaks Ave", "South Pasadena, CA 91030"]}, "phone": "+16264415151", "display_phone": "(626) 441-5151", "distance": 590.4195027772446}, {"id": "Zl4q2_oqLAa4SFMT7a6zrQ", "alias": "loan-girl-south-pasadena", "name": "Loan Girl", "image_url": "https://s3-media2.fl.yelpcdn.com/bphoto/huOhoxYe3hAw0ji2xrWJvg/o.jpg", "is_closed": false, "url": "https://www.yelp.com/biz/loan-girl-south-pasadena?adjust_creative=y4osxHmnMD1pXQYRCP96Jg&utm_campaign=yelp_api_v3&utm_medium=api_v3_business_search&utm_source=y4osxHmnMD1pXQYRCP96Jg", "review_count": 4, "categories": [{"alias": "mortgagelenders", "title": "Mortgage Lenders"}], "rating": 5.0, "coordinates": {"latitude": 34.108231617564, "longitude": -118.150973841548}, "transactions": [], "location": {"address1": "1517 Fair Oaks Ave", "address2": "Ste C", "address3": "", "city": "South Pasadena", "zip_code": "91030", "country": "US", "state": "CA", "display_address": ["1517 Fair Oaks Ave", "Ste C", "South Pasadena, CA 91030"]}, "phone": "+13233036061", "display_phone": "(323) 303-6061", "distance": 877.119776072108}, {"id": "KdW8O6_5m2cYEsYJ023joQ", "alias": "priority-one-credit-union-south-pasadena", "name": "Priority One Credit Union", "image_url": "https://s3-media4.fl.yelpcdn.com/bphoto/GhHBp6b7iLAy4HmC7aCRhg/o.jpg", "is_closed": false, "url": "https://www.yelp.com/biz/priority-one-credit-union-south-pasadena?adjust_creative=y4osxHmnMD1pXQYRCP96Jg&utm_campaign=yelp_api_v3&utm_medium=api_v3_business_search&utm_source=y4osxHmnMD1pXQYRCP96Jg", "review_count": 28, "categories": [{"alias": "banks", "title": "Banks & Credit Unions"}], "rating": 2.0, "coordinates": {"latitude": 34.10374, "longitude": -118.14761}, "transactions": [], "location": {"address1": "1631 Huntington Dr", "address2": "", "address3": "", "city": "South Pasadena", "zip_code": "91030", "country": "US", "state": "CA", "display_address": ["1631 Huntington Dr", "South Pasadena, CA 91030"]}, "phone": "+18777628663", "display_phone": "(877) 762-8663", "distance": 1396.3432275212294}, {"id": "jI-VKn6jWza-DkDeFU8lXw", "alias": "emrick-garam-success-coach-south-pasadena", "name": "Emrick Garam Success Coach", "image_url": "https://s3-media3.fl.yelpcdn.com/bphoto/InWi-Xho9YocHJqelq66OQ/o.jpg", "is_closed": false, "url": "https://www.yelp.com/biz/emrick-garam-success-coach-south-pasadena?adjust_creative=y4osxHmnMD1pXQYRCP96Jg&utm_campaign=yelp_api_v3&utm_medium=api_v3_business_search&utm_source=y4osxHmnMD1pXQYRCP96Jg", "review_count": 1, "categories": [{"alias": "businessconsulting", "title": "Business Consulting"}], "rating": 5.0, "coordinates": {"latitude": 34.1227345, "longitude": -118.1664525}, "transactions": [], "location": {"address1": "San Pascual Ave", "address2": "", "address3": "", "city": "South Pasadena", "zip_code": "91030", "country": "US", "state": "CA", "display_address": ["San Pascual Ave", "South Pasadena, CA 91030"]}, "phone": "+13235376757", "display_phone": "(323) 537-6757", "distance": 1659.8656160083785}, {"id": "UHezd4zhOWux9mhSHvNjxg", "alias": "henson-and-company-cpas-south-pasadena", "name": "Henson & Company CPA's", "image_url": "https://s3-media2.fl.yelpcdn.com/bphoto/6nZJqJx10KA0EKdqmwZZfQ/o.jpg", "is_closed": false, "url": "https://www.yelp.com/biz/henson-and-company-cpas-south-pasadena?adjust_creative=y4osxHmnMD1pXQYRCP96Jg&utm_campaign=yelp_api_v3&utm_medium=api_v3_business_search&utm_source=y4osxHmnMD1pXQYRCP96Jg", "review_count": 5, "categories": [{"alias": "accountants", "title": "Accountants"}, {"alias": "taxservices", "title": "Tax Services"}, {"alias": "payroll", "title": "Payroll Services"}], "rating": 5.0, "coordinates": {"latitude": 34.104701, "longitude": -118.13742}, "transactions": [], "location": {"address1": "2045 Huntington Dr", "address2": "", "address3": "", "city": "South Pasadena", "zip_code": "91030", "country": "US", "state": "CA", "display_address": ["2045 Huntington Dr", "South Pasadena, CA 91030"]}, "phone": "+16264034410", "display_phone": "(626) 403-4410", "distance": 1725.4351394345492}, {"id": "13JGRDe4oDNp1LUPerV2zg", "alias": "huntington-group-south-pasadena-7", "name": "Huntington Group", "image_url": "https://s3-media2.fl.yelpcdn.com/bphoto/F0MQMqoZPhYl7q3ufF0eZQ/o.jpg", "is_closed": false, "url": "https://www.yelp.com/biz/huntington-group-south-pasadena-7?adjust_creative=y4osxHmnMD1pXQYRCP96Jg&utm_campaign=yelp_api_v3&utm_medium=api_v3_business_search&utm_source=y4osxHmnMD1pXQYRCP96Jg", "review_count": 9, "categories": [{"alias": "realestateagents", "title": "Real Estate Agents"}, {"alias": "realestatesvcs", "title": "Real Estate Services"}, {"alias": "mortgagelenders", "title": "Mortgage Lenders"}], "rating": 5.0, "coordinates": {"latitude": 34.1123155, "longitude": -118.168975}, "transactions": [], "location": {"address1": "305 Pasadena Ave", "address2": "", "address3": "", "city": "South Pasadena", "zip_code": "91030", "country": "US", "state": "CA", "display_address": ["305 Pasadena Ave", "South Pasadena, CA 91030"]}, "phone": "+16264038230", "display_phone": "(626) 403-8230", "distance": 1752.7484947386474}, {"id": "e0j-8m99cITuk33793_6kw", "alias": "sam-andress-huntington-group-south-pasadena-3", "name": "Sam Andress - Huntington Group", "image_url": "https://s3-media1.fl.yelpcdn.com/bphoto/rlABxEchlJN60AVqckrwaA/o.jpg", "is_closed": false, "url": "https://www.yelp.com/biz/sam-andress-huntington-group-south-pasadena-3?adjust_creative=y4osxHmnMD1pXQYRCP96Jg&utm_campaign=yelp_api_v3&utm_medium=api_v3_business_search&utm_source=y4osxHmnMD1pXQYRCP96Jg", "review_count": 6, "categories": [{"alias": "realestateagents", "title": "Real Estate Agents"}], "rating": 5.0, "coordinates": {"latitude": 34.1123155, "longitude": -118.168975}, "transactions": [], "location": {"address1": "305 Pasadena Ave", "address2": null, "address3": "", "city": "South Pasadena", "zip_code": "91030", "country": "US", "state": "CA", "display_address": ["305 Pasadena Ave", "South Pasadena, CA 91030"]}, "phone": "+16264197793", "display_phone": "(626) 419-7793", "distance": 1753.3749181474925}, {"id": "UpXPRvMgpVzkxENlyzUwEA", "alias": "nareg-kaprielian-huntington-mortgage-south-pasedena", "name": "Nareg Kaprielian - Huntington Mortgage", "image_url": "https://s3-media2.fl.yelpcdn.com/bphoto/Rabzj6l2D4JEItuLGMJy3w/o.jpg", "is_closed": false, "url": "https://www.yelp.com/biz/nareg-kaprielian-huntington-mortgage-south-pasedena?adjust_creative=y4osxHmnMD1pXQYRCP96Jg&utm_campaign=yelp_api_v3&utm_medium=api_v3_business_search&utm_source=y4osxHmnMD1pXQYRCP96Jg", "review_count": 69, "categories": [{"alias": "mortgagebrokers", "title": "Mortgage Brokers"}], "rating": 5.0, "coordinates": {"latitude": 34.11228, "longitude": -118.16873}, "transactions": [], "location": {"address1": "305 Pasedena Ave", "address2": "", "address3": "", "city": "South Pasedena", "zip_code": "91030", "country": "US", "state": "CA", "display_address": ["305 Pasedena Ave", "South Pasedena, CA 91030"]}, "phone": "+18189038204", "display_phone": "(818) 903-8204", "distance": 1753.3749181474925}, {"id": "hK9YwuKZUuPWACxwKAPI9Q", "alias": "equity-smart-home-loans-south-pasadena-4", "name": "Equity Smart Home Loans", "image_url": "https://s3-media2.fl.yelpcdn.com/bphoto/U6ny-GV3cDipA_3RGHBm-Q/o.jpg", "is_closed": false, "url": "https://www.yelp.com/biz/equity-smart-home-loans-south-pasadena-4?adjust_creative=y4osxHmnMD1pXQYRCP96Jg&utm_campaign=yelp_api_v3&utm_medium=api_v3_business_search&utm_source=y4osxHmnMD1pXQYRCP96Jg", "review_count": 32, "categories": [{"alias": "mortgagebrokers", "title": "Mortgage Brokers"}], "rating": 5.0, "coordinates": {"latitude": 34.1113892111548, "longitude": -118.174717643073}, "transactions": [], "location": {"address1": "1010 Sycamore Ave", "address2": "Ste 106", "address3": "", "city": "South Pasadena", "zip_code": "91030", "country": "US", "state": "CA", "display_address": ["1010 Sycamore Ave", "Ste 106", "South Pasadena, CA 91030"]}, "phone": "+13232584317", "display_phone": "(323) 258-4317", "distance": 2308.137550669007}]