[{"id": "LtPOkMcdGBcQT-qx0COG9A", "alias": "legal-document-assistance-by-koudsi-south-pasadena-2", "name": "Legal Document Assistance by Koudsi", "image_url": "https://s3-media4.fl.yelpcdn.com/bphoto/D5keuwxvPDodqqv-0A6TLA/o.jpg", "is_closed": false, "url": "https://www.yelp.com/biz/legal-document-assistance-by-koudsi-south-pasadena-2?adjust_creative=y4osxHmnMD1pXQYRCP96Jg&utm_campaign=yelp_api_v3&utm_medium=api_v3_business_search&utm_source=y4osxHmnMD1pXQYRCP96Jg", "review_count": 1, "categories": [{"alias": "legalservices", "title": "Legal Services"}], "rating": 5.0, "coordinates": {"latitude": 34.1173782348633, "longitude": -118.150833129883}, "transactions": [], "location": {"address1": null, "address2": null, "address3": "", "city": "South Pasadena", "zip_code": "91030", "country": "US", "state": "CA", "display_address": ["South Pasadena, CA 91030"]}, "phone": "+16263942467", "display_phone": "(626) 394-2467", "distance": 4.993195600113268}, {"id": "Gpv35WEAOyGiRQqjHAkfFA", "alias": "the-law-office-of-luis-n-valdivia-south-pasadena", "name": "The Law Office Of Luis N Valdivia", "image_url": "https://s3-media2.fl.yelpcdn.com/bphoto/Zivp_yTJCAMwkmICF2Dczw/o.jpg", "is_closed": false, "url": "https://www.yelp.com/biz/the-law-office-of-luis-n-valdivia-south-pasadena?adjust_creative=y4osxHmnMD1pXQYRCP96Jg&utm_campaign=yelp_api_v3&utm_medium=api_v3_business_search&utm_source=y4osxHmnMD1pXQYRCP96Jg", "review_count": 6, "categories": [{"alias": "criminaldefense", "title": "Criminal Defense Law"}, {"alias": "personal_injury", "title": "Personal Injury Law"}, {"alias": "duilawyers", "title": "DUI Law"}], "rating": 5.0, "coordinates": {"latitude": 34.1167152, "longitude": -118.1499832}, "transactions": [], "location": {"address1": "1605 Hope St", "address2": "Ste 360", "address3": "Fair Hope Building", "city": "South Pasadena", "zip_code": "91030", "country": "US", "state": "CA", "display_address": ["1605 Hope St", "Ste 360", "Fair Hope Building", "South Pasadena, CA 91030"]}, "phone": "+13235293493", "display_phone": "(323) 529-3493", "distance": 76.29899739494333}, {"id": "-eyqQ7xOpPxIc7HQ18dG5w", "alias": "law-office-of-jesse-a-verdin-south-pasadena", "name": "Law Office of Jesse A Verdin", "image_url": "https://s3-media2.fl.yelpcdn.com/bphoto/JU660zm19osijR_03mUuxQ/o.jpg", "is_closed": false, "url": "https://www.yelp.com/biz/law-office-of-jesse-a-verdin-south-pasadena?adjust_creative=y4osxHmnMD1pXQYRCP96Jg&utm_campaign=yelp_api_v3&utm_medium=api_v3_business_search&utm_source=y4osxHmnMD1pXQYRCP96Jg", "review_count": 7, "categories": [{"alias": "divorce", "title": "Divorce & Family Law"}], "rating": 5.0, "coordinates": {"latitude": 34.1167152, "longitude": -118.1499832}, "transactions": [], "location": {"address1": "1605 Hope St", "address2": "Ste 360", "address3": "", "city": "South Pasadena", "zip_code": "91030", "country": "US", "state": "CA", "display_address": ["1605 Hope St", "Ste 360", "South Pasadena, CA 91030"]}, "phone": "+16267990104", "display_phone": "(626) 799-0104", "distance": 76.88006837069032}, {"id": "dptv3btLZz1Af78tFvKgpQ", "alias": "juris-mediation-and-paralegal-services-south-pasadena", "name": "Juris Mediation and Paralegal Services", "image_url": "", "is_closed": false, "url": "https://www.yelp.com/biz/juris-mediation-and-paralegal-services-south-pasadena?adjust_creative=y4osxHmnMD1pXQYRCP96Jg&utm_campaign=yelp_api_v3&utm_medium=api_v3_business_search&utm_source=y4osxHmnMD1pXQYRCP96Jg", "review_count": 1, "categories": [{"alias": "mediators", "title": "Mediators"}, {"alias": "legalservices", "title": "Legal Services"}, {"alias": "divorce", "title": "Divorce & Family Law"}], "rating": 5.0, "coordinates": {"latitude": 34.1167152, "longitude": -118.1499832}, "transactions": [], "location": {"address1": "1605 Hope St", "address2": "Ste 360", "address3": null, "city": "South Pasadena", "zip_code": "91030", "country": "US", "state": "CA", "display_address": ["1605 Hope St", "Ste 360", "South Pasadena, CA 91030"]}, "phone": "+16267990104", "display_phone": "(626) 799-0104", "distance": 76.88006837069032}, {"id": "0gD9C8ElI72EgMKg-qB0QQ", "alias": "aquino-and-loew-south-pasadena", "name": "Aquino & Loew", "image_url": "https://s3-media4.fl.yelpcdn.com/bphoto/p_5hR7aaqNhBHWQQGW_CZQ/o.jpg", "is_closed": false, "url": "https://www.yelp.com/biz/aquino-and-loew-south-pasadena?adjust_creative=y4osxHmnMD1pXQYRCP96Jg&utm_campaign=yelp_api_v3&utm_medium=api_v3_business_search&utm_source=y4osxHmnMD1pXQYRCP96Jg", "review_count": 12, "categories": [{"alias": "immigrationlawyers", "title": "Immigration Law"}], "rating": 4.5, "coordinates": {"latitude": 34.11816, "longitude": -118.15104}, "transactions": [], "location": {"address1": "625 Fair Oaks Ave", "address2": "Ste 101", "address3": "", "city": "South Pasadena", "zip_code": "91030", "country": "US", "state": "CA", "display_address": ["625 Fair Oaks Ave", "Ste 101", "South Pasadena, CA 91030"]}, "phone": "+18887971140", "display_phone": "(888) 797-1140", "distance": 236.82282708192292}, {"id": "_0R9d8ELnZES4lPmOT1EAw", "alias": "manibog-law-south-pasadena", "name": "Manibog Law", "image_url": "https://s3-media3.fl.yelpcdn.com/bphoto/mthbVk1LPBmkthtFxEZrqw/o.jpg", "is_closed": false, "url": "https://www.yelp.com/biz/manibog-law-south-pasadena?adjust_creative=y4osxHmnMD1pXQYRCP96Jg&utm_campaign=yelp_api_v3&utm_medium=api_v3_business_search&utm_source=y4osxHmnMD1pXQYRCP96Jg", "review_count": 125, "categories": [{"alias": "personal_injury", "title": "Personal Injury Law"}, {"alias": "general_litigation", "title": "General Litigation"}, {"alias": "medicallaw", "title": "Medical Law"}], "rating": 5.0, "coordinates": {"latitude": 34.11816, "longitude": -118.15104}, "transactions": [], "location": {"address1": "625 Fair Oaks Ave", "address2": "Ste 101", "address3": "", "city": "South Pasadena", "zip_code": "91030", "country": "US", "state": "CA", "display_address": ["625 Fair Oaks Ave", "Ste 101", "South Pasadena, CA 91030"]}, "phone": "+16265775444", "display_phone": "(626) 577-5444", "distance": 236.82282708192292}, {"id": "-YrQgNHtEgmGoW_GBWQwFA", "alias": "law-offices-of-jesus-silva-jr-south-pasadena", "name": "Law Offices Of Jesus Silva Jr", "image_url": "https://s3-media1.fl.yelpcdn.com/bphoto/6SBaoKZodCQxchcT1ON0Rg/o.jpg", "is_closed": false, "url": "https://www.yelp.com/biz/law-offices-of-jesus-silva-jr-south-pasadena?adjust_creative=y4osxHmnMD1pXQYRCP96Jg&utm_campaign=yelp_api_v3&utm_medium=api_v3_business_search&utm_source=y4osxHmnMD1pXQYRCP96Jg", "review_count": 5, "categories": [{"alias": "divorce", "title": "Divorce & Family Law"}], "rating": 4.0, "coordinates": {"latitude": 34.11816, "longitude": -118.15104}, "transactions": [], "location": {"address1": "625 Fair Oaks Ave", "address2": "Ste 101", "address3": null, "city": "South Pasadena", "zip_code": "91030", "country": "US", "state": "CA", "display_address": ["625 Fair Oaks Ave", "Ste 101", "South Pasadena, CA 91030"]}, "phone": "+16267993118", "display_phone": "(626) 799-3118", "distance": 236.82282708192292}, {"id": "lAAuiDv47dF3Aa_mFCHZEA", "alias": "law-offices-of-paul-yee-south-pasadena-2", "name": "Law Offices of Paul Yee", "image_url": "https://s3-media2.fl.yelpcdn.com/bphoto/vqqGfOYzlnIkVb45vCMJ8g/o.jpg", "is_closed": false, "url": "https://www.yelp.com/biz/law-offices-of-paul-yee-south-pasadena-2?adjust_creative=y4osxHmnMD1pXQYRCP96Jg&utm_campaign=yelp_api_v3&utm_medium=api_v3_business_search&utm_source=y4osxHmnMD1pXQYRCP96Jg", "review_count": 4, "categories": [{"alias": "businesslawyers", "title": "Business Law"}, {"alias": "estateplanning", "title": "Estate Planning Law"}, {"alias": "iplaw", "title": "IP & Internet Law"}], "rating": 5.0, "coordinates": {"latitude": 34.1155856, "longitude": -118.1528614}, "transactions": [], "location": {"address1": "1401 Mission St", "address2": "Ste C1", "address3": "", "city": "South Pasadena", "zip_code": "91030", "country": "US", "state": "CA", "display_address": ["1401 Mission St", "Ste C1", "South Pasadena, CA 91030"]}, "phone": "+16267994900", "display_phone": "(626) 799-4900", "distance": 242.63759012494023}, {"id": "A7k3GVTm7qDhb9-F0EDQ8A", "alias": "riley-thomas-p-law-offices-south-pasadena", "name": "Riley Thomas P Law Offices", "image_url": "https://s3-media3.fl.yelpcdn.com/bphoto/FwSN2PvHASOtCVyV5VOEdA/o.jpg", "is_closed": false, "url": "https://www.yelp.com/biz/riley-thomas-p-law-offices-south-pasadena?adjust_creative=y4osxHmnMD1pXQYRCP96Jg&utm_campaign=yelp_api_v3&utm_medium=api_v3_business_search&utm_source=y4osxHmnMD1pXQYRCP96Jg", "review_count": 1, "categories": [{"alias": "lawyers", "title": "Lawyers"}], "rating": 1.0, "coordinates": {"latitude": 34.1130376, "longitude": -118.1529607}, "transactions": [], "location": {"address1": "1114 Fremont Ave", "address2": null, "address3": null, "city": "South Pasadena", "zip_code": "91030", "country": "US", "state": "CA", "display_address": ["1114 Fremont Ave", "South Pasadena, CA 91030"]}, "phone": "+12132299292", "display_phone": "(213) 229-9292", "distance": 386.17797221900656}, {"id": "ZXnI1Cs9_VqyU1CWZCu8Ng", "alias": "boortz-steven-l-law-offices-of-south-pasadena", "name": "Boortz Steven L Law Offices of", "image_url": "", "is_closed": false, "url": "https://www.yelp.com/biz/boortz-steven-l-law-offices-of-south-pasadena?adjust_creative=y4osxHmnMD1pXQYRCP96Jg&utm_campaign=yelp_api_v3&utm_medium=api_v3_business_search&utm_source=y4osxHmnMD1pXQYRCP96Jg", "review_count": 3, "categories": [{"alias": "divorce", "title": "Divorce & Family Law"}, {"alias": "businesslawyers", "title": "Business Law"}, {"alias": "realestatelawyers", "title": "Real Estate Law"}], "rating": 5.0, "coordinates": {"latitude": 34.11446, "longitude": -118.15644}, "transactions": [], "location": {"address1": "1003 Diamond Ave", "address2": "Ste 204", "address3": "", "city": "South Pasadena", "zip_code": "91030", "country": "US", "state": "CA", "display_address": ["1003 Diamond Ave", "Ste 204", "South Pasadena, CA 91030"]}, "phone": "+16264411038", "display_phone": "(626) 441-1038", "distance": 593.698214416197}, {"id": "tp8LjYyjepVYHQlFn7x6jw", "alias": "craig-g-clark-ph-d-south-pasadena", "name": "Craig G. Clark, Ph.D.", "image_url": "https://s3-media1.fl.yelpcdn.com/bphoto/bvibcP9bqhXFhaG4EcK3_w/o.jpg", "is_closed": false, "url": "https://www.yelp.com/biz/craig-g-clark-ph-d-south-pasadena?adjust_creative=y4osxHmnMD1pXQYRCP96Jg&utm_campaign=yelp_api_v3&utm_medium=api_v3_business_search&utm_source=y4osxHmnMD1pXQYRCP96Jg", "review_count": 3, "categories": [{"alias": "careercounseling", "title": "Career Counseling"}, {"alias": "psychologists", "title": "Psychologists"}], "rating": 3.5, "coordinates": {"latitude": 34.10516, "longitude": -118.15008}, "transactions": [], "location": {"address1": "1800 Fair Oaks Ave", "address2": "Ste A", "address3": "", "city": "South Pasadena", "zip_code": "91030", "country": "US", "state": "CA", "display_address": ["1800 Fair Oaks Ave", "Ste A", "South Pasadena, CA 91030"]}, "phone": "+16264371432", "display_phone": "(626) 437-1432", "distance": 1214.7572269307009}, {"id": "jOGUH68acGGP1JHxyDkaqw", "alias": "enrique-arevalo-south-pasadena", "name": "Enrique Arevalo", "image_url": "https://s3-media2.fl.yelpcdn.com/bphoto/OtabugkfrkHEjPzMJ68-Yg/o.jpg", "is_closed": false, "url": "https://www.yelp.com/biz/enrique-arevalo-south-pasadena?adjust_creative=y4osxHmnMD1pXQYRCP96Jg&utm_campaign=yelp_api_v3&utm_medium=api_v3_business_search&utm_source=y4osxHmnMD1pXQYRCP96Jg", "review_count": 9, "categories": [{"alias": "immigrationlawyers", "title": "Immigration Law"}], "rating": 1.5, "coordinates": {"latitude": 34.11537, "longitude": -118.16484}, "transactions": [], "location": {"address1": "505 Mission St", "address2": null, "address3": null, "city": "South Pasadena", "zip_code": "91030", "country": "US", "state": "CA", "display_address": ["505 Mission St", "South Pasadena, CA 91030"]}, "phone": "+16267996585", "display_phone": "(626) 799-6585", "distance": 1344.4452088256746}, {"id": "HPoxThtpnRI3zH2GlKmjSg", "alias": "carrillo-law-firm-south-pasadena-2", "name": "Carrillo Law Firm", "image_url": "https://s3-media2.fl.yelpcdn.com/bphoto/mW9M0ijZ2OvUEtdqNa-uOg/o.jpg", "is_closed": false, "url": "https://www.yelp.com/biz/carrillo-law-firm-south-pasadena-2?adjust_creative=y4osxHmnMD1pXQYRCP96Jg&utm_campaign=yelp_api_v3&utm_medium=api_v3_business_search&utm_source=y4osxHmnMD1pXQYRCP96Jg", "review_count": 22, "categories": [{"alias": "lawyers", "title": "Lawyers"}], "rating": 4.5, "coordinates": {"latitude": 34.10368, "longitude": -118.15046}, "transactions": [], "location": {"address1": "1499 Huntington Dr", "address2": "Ste 402", "address3": "", "city": "South Pasadena", "zip_code": "91030", "country": "US", "state": "CA", "display_address": ["1499 Huntington Dr", "Ste 402", "South Pasadena, CA 91030"]}, "phone": "+16267999375", "display_phone": "(626) 799-9375", "distance": 1366.9885722309948}]