[{"id": "cEyYkfQ10hfC6LQAcP6uCg", "alias": "arnes-garage-door-south-pasadena", "name": "Arnes Garage Door", "image_url": "https://s3-media1.fl.yelpcdn.com/bphoto/LMrKgBVox9ddA3hMtArGfg/o.jpg", "is_closed": false, "url": "https://www.yelp.com/biz/arnes-garage-door-south-pasadena?adjust_creative=y4osxHmnMD1pXQYRCP96Jg&utm_campaign=yelp_api_v3&utm_medium=api_v3_business_search&utm_source=y4osxHmnMD1pXQYRCP96Jg", "review_count": 17, "categories": [{"alias": "garage_door_services", "title": "Garage Door Services"}], "rating": 4.5, "coordinates": {"latitude": 34.11738, "longitude": -118.15083}, "transactions": [], "location": {"address1": "", "address2": null, "address3": null, "city": "South Pasadena", "zip_code": "91030", "country": "US", "state": "CA", "display_address": ["South Pasadena, CA 91030"]}, "phone": "+16264977004", "display_phone": "(626) 497-7004", "distance": 4.993195600113268}, {"id": "J8dKCHLYkwutN7WTvvyT_A", "alias": "felix-i-hernandez-premiere-realtor-south-pasadena", "name": "Felix I Hernandez - Premiere Realtor", "image_url": "", "is_closed": false, "url": "https://www.yelp.com/biz/felix-i-hernandez-premiere-realtor-south-pasadena?adjust_creative=y4osxHmnMD1pXQYRCP96Jg&utm_campaign=yelp_api_v3&utm_medium=api_v3_business_search&utm_source=y4osxHmnMD1pXQYRCP96Jg", "review_count": 1, "categories": [{"alias": "realestateagents", "title": "Real Estate Agents"}], "rating": 5.0, "coordinates": {"latitude": 34.11216, "longitude": -118.15807}, "transactions": [], "location": {"address1": "", "address2": "", "address3": "", "city": "South Pasadena", "zip_code": "91030", "country": "US", "state": "CA", "display_address": ["South Pasadena, CA 91030"]}, "phone": "+16267657776", "display_phone": "(626) 765-7776", "distance": 4.993195600113268}, {"id": "XPfh0YkUVf1aCyvZqnJyAA", "alias": "m-and-h-locksmith-south-pasadena", "name": "M&H Locksmith", "image_url": "https://s3-media2.fl.yelpcdn.com/bphoto/1Pqwoxv-QZBzjWnBSn-6xA/o.jpg", "is_closed": false, "url": "https://www.yelp.com/biz/m-and-h-locksmith-south-pasadena?adjust_creative=y4osxHmnMD1pXQYRCP96Jg&utm_campaign=yelp_api_v3&utm_medium=api_v3_business_search&utm_source=y4osxHmnMD1pXQYRCP96Jg", "review_count": 225, "categories": [{"alias": "locksmiths", "title": "Keys & Locksmiths"}], "rating": 5.0, "coordinates": {"latitude": 34.1173782348633, "longitude": -118.150833129883}, "transactions": [], "location": {"address1": "", "address2": "", "address3": null, "city": "South Pasadena", "zip_code": "91030", "country": "US", "state": "CA", "display_address": ["South Pasadena, CA 91030"]}, "phone": "+18182876072", "display_phone": "(818) 287-6072", "distance": 4.993195600113268}, {"id": "jnTUirMQq2tqMrshW-XdDQ", "alias": "sicara-design-south-pasadena", "name": "Sicara Design", "image_url": "https://s3-media1.fl.yelpcdn.com/bphoto/1Kxv8Xz83TMvny0YlO9mjg/o.jpg", "is_closed": false, "url": "https://www.yelp.com/biz/sicara-design-south-pasadena?adjust_creative=y4osxHmnMD1pXQYRCP96Jg&utm_campaign=yelp_api_v3&utm_medium=api_v3_business_search&utm_source=y4osxHmnMD1pXQYRCP96Jg", "review_count": 5, "categories": [{"alias": "homestaging", "title": "Home Staging"}, {"alias": "interiordesign", "title": "Interior Design"}], "rating": 4.0, "coordinates": {"latitude": 34.1173782348633, "longitude": -118.150833129883}, "transactions": [], "location": {"address1": null, "address2": null, "address3": "", "city": "South Pasadena", "zip_code": "91030", "country": "US", "state": "CA", "display_address": ["South Pasadena, CA 91030"]}, "phone": "+15105200677", "display_phone": "(510) 520-0677", "distance": 4.993195600113268}, {"id": "afVvGROnLqGMbD-v_-QK8A", "alias": "wealth-realty-south-pasadena", "name": "Wealth Realty", "image_url": "https://s3-media2.fl.yelpcdn.com/bphoto/t0DOWMswvOHqs3UcdZvfrg/o.jpg", "is_closed": false, "url": "https://www.yelp.com/biz/wealth-realty-south-pasadena?adjust_creative=y4osxHmnMD1pXQYRCP96Jg&utm_campaign=yelp_api_v3&utm_medium=api_v3_business_search&utm_source=y4osxHmnMD1pXQYRCP96Jg", "review_count": 2, "categories": [{"alias": "realestatesvcs", "title": "Real Estate Services"}], "rating": 5.0, "coordinates": {"latitude": 34.1163054, "longitude": -118.1504749}, "transactions": [], "location": {"address1": "815 Fair Oaks", "address2": "", "address3": "", "city": "South Pasadena", "zip_code": "91030", "country": "US", "state": "CA", "display_address": ["815 Fair Oaks", "South Pasadena, CA 91030"]}, "phone": "+16264412848", "display_phone": "(626) 441-2848", "distance": 29.789723537589655}, {"id": "oawi_lbMNDcY0IGag38deA", "alias": "bryant-companies-south-pasadena", "name": "Bryant Companies", "image_url": "https://s3-media3.fl.yelpcdn.com/bphoto/CnD7k9AlWQsKd1LY_9ZROQ/o.jpg", "is_closed": false, "url": "https://www.yelp.com/biz/bryant-companies-south-pasadena?adjust_creative=y4osxHmnMD1pXQYRCP96Jg&utm_campaign=yelp_api_v3&utm_medium=api_v3_business_search&utm_source=y4osxHmnMD1pXQYRCP96Jg", "review_count": 58, "categories": [{"alias": "propertymgmt", "title": "Property Management"}, {"alias": "realestateagents", "title": "Real Estate Agents"}], "rating": 3.5, "coordinates": {"latitude": 34.1162067, "longitude": -118.1502051}, "transactions": [], "location": {"address1": "812 Fair Oaks Ave", "address2": null, "address3": null, "city": "South Pasadena", "zip_code": "91030", "country": "US", "state": "CA", "display_address": ["812 Fair Oaks Ave", "South Pasadena, CA 91030"]}, "phone": "+16264413141", "display_phone": "(626) 441-3141", "distance": 30.77802004248578}, {"id": "0CwyIHvSA0l5I-cRn31FVA", "alias": "marc-ellis-trusted-real-estate-advsior-south-pasadena", "name": "Marc Ellis - Trusted Real Estate Advsior", "image_url": "https://s3-media3.fl.yelpcdn.com/bphoto/QYzaDElzXnNostixLb3WmA/o.jpg", "is_closed": false, "url": "https://www.yelp.com/biz/marc-ellis-trusted-real-estate-advsior-south-pasadena?adjust_creative=y4osxHmnMD1pXQYRCP96Jg&utm_campaign=yelp_api_v3&utm_medium=api_v3_business_search&utm_source=y4osxHmnMD1pXQYRCP96Jg", "review_count": 7, "categories": [{"alias": "realestateagents", "title": "Real Estate Agents"}], "rating": 4.5, "coordinates": {"latitude": 34.1163128, "longitude": -118.1500862}, "transactions": [], "location": {"address1": "812 Fair Oaks Ave", "address2": "", "address3": "", "city": "South Pasadena", "zip_code": "91030", "country": "US", "state": "CA", "display_address": ["812 Fair Oaks Ave", "South Pasadena, CA 91030"]}, "phone": "+16263186844", "display_phone": "(626) 318-6844", "distance": 30.77802004248578}, {"id": "xdiVNCsDsr6a9XRfJ7-cpw", "alias": "the-jireh-group-south-pasadena", "name": "The Jireh Group", "image_url": "https://s3-media1.fl.yelpcdn.com/bphoto/lKwPNIR7TRIK_qRX_z-pFA/o.jpg", "is_closed": false, "url": "https://www.yelp.com/biz/the-jireh-group-south-pasadena?adjust_creative=y4osxHmnMD1pXQYRCP96Jg&utm_campaign=yelp_api_v3&utm_medium=api_v3_business_search&utm_source=y4osxHmnMD1pXQYRCP96Jg", "review_count": 10, "categories": [{"alias": "propertymgmt", "title": "Property Management"}], "rating": 4.0, "coordinates": {"latitude": 34.1131285, "longitude": -118.1502351}, "transactions": [], "location": {"address1": "1116 Fair Oaks Ave", "address2": null, "address3": "", "city": "South Pasadena", "zip_code": "91030", "country": "US", "state": "CA", "display_address": ["1116 Fair Oaks Ave", "South Pasadena, CA 91030"]}, "phone": "+16263249448", "display_phone": "(626) 324-9448", "distance": 336.0202238112211}, {"id": "mDWZWNMwJ-_PhIrqUO0fbQ", "alias": "elite-stone-fabricators-south-pasadena", "name": "Elite Stone Fabricators", "image_url": "", "is_closed": false, "url": "https://www.yelp.com/biz/elite-stone-fabricators-south-pasadena?adjust_creative=y4osxHmnMD1pXQYRCP96Jg&utm_campaign=yelp_api_v3&utm_medium=api_v3_business_search&utm_source=y4osxHmnMD1pXQYRCP96Jg", "review_count": 3, "categories": [{"alias": "masonry_concrete", "title": "Masonry/Concrete"}, {"alias": "landscapearchitects", "title": "Landscape Architects"}, {"alias": "contractors", "title": "Contractors"}], "rating": 3.5, "coordinates": {"latitude": 34.1155853, "longitude": -118.1591492}, "transactions": [], "location": {"address1": "843 Mission St", "address2": "", "address3": "", "city": "South Pasadena", "zip_code": "91030", "country": "US", "state": "CA", "display_address": ["843 Mission St", "South Pasadena, CA 91030"]}, "phone": "+16264417910", "display_phone": "(626) 441-7910", "distance": 796.6218383010936}, {"id": "g8tjA0wZAMVjQ5uh4-G-gw", "alias": "rebekka-lien-real-estate-heaven-south-pasadena-ca", "name": "Rebekka Lien - Real Estate Heaven", "image_url": "https://s3-media1.fl.yelpcdn.com/bphoto/s8dphB8h_2qhOALlI_KnJA/o.jpg", "is_closed": false, "url": "https://www.yelp.com/biz/rebekka-lien-real-estate-heaven-south-pasadena-ca?adjust_creative=y4osxHmnMD1pXQYRCP96Jg&utm_campaign=yelp_api_v3&utm_medium=api_v3_business_search&utm_source=y4osxHmnMD1pXQYRCP96Jg", "review_count": 4, "categories": [{"alias": "realestateagents", "title": "Real Estate Agents"}], "rating": 5.0, "coordinates": {"latitude": 34.108235, "longitude": -118.150971}, "transactions": [], "location": {"address1": "1517 S Fair Oaks Ave", "address2": "Ste B", "address3": "", "city": "South Pasadena CA", "zip_code": "91030", "country": "US", "state": "CA", "display_address": ["1517 S Fair Oaks Ave", "Ste B", "South Pasadena CA, CA 91030"]}, "phone": "+16262303238", "display_phone": "(626) 230-3238", "distance": 876.7261377372093}, {"id": "ksyqhI_fFlkH4L2LiIOvMg", "alias": "abel-garfias-real-estate-heaven-south-pasadena-2", "name": "Abel Garfias - Real Estate Heaven", "image_url": "https://s3-media3.fl.yelpcdn.com/bphoto/wuJCO54f2dhRPfq0QaGJvw/o.jpg", "is_closed": false, "url": "https://www.yelp.com/biz/abel-garfias-real-estate-heaven-south-pasadena-2?adjust_creative=y4osxHmnMD1pXQYRCP96Jg&utm_campaign=yelp_api_v3&utm_medium=api_v3_business_search&utm_source=y4osxHmnMD1pXQYRCP96Jg", "review_count": 1, "categories": [{"alias": "realestateagents", "title": "Real Estate Agents"}], "rating": 5.0, "coordinates": {"latitude": 34.10821, "longitude": -118.15096}, "transactions": [], "location": {"address1": "1517 S Fair Oaks Ave", "address2": null, "address3": "", "city": "South Pasadena", "zip_code": "91030", "country": "US", "state": "CA", "display_address": ["1517 S Fair Oaks Ave", "South Pasadena, CA 91030"]}, "phone": "+13235248929", "display_phone": "(323) 524-8929", "distance": 883.8375188587098}, {"id": "kYBv0c0EU2MnjndyYMfZxQ", "alias": "talktopaul-south-pasadena-6", "name": "TalkToPaul", "image_url": "https://s3-media4.fl.yelpcdn.com/bphoto/DwB-RX2u03kd0hj-HFB5jA/o.jpg", "is_closed": false, "url": "https://www.yelp.com/biz/talktopaul-south-pasadena-6?adjust_creative=y4osxHmnMD1pXQYRCP96Jg&utm_campaign=yelp_api_v3&utm_medium=api_v3_business_search&utm_source=y4osxHmnMD1pXQYRCP96Jg", "review_count": 5, "categories": [{"alias": "realestateagents", "title": "Real Estate Agents"}], "rating": 4.0, "coordinates": {"latitude": 34.124068, "longitude": -118.150321}, "transactions": [], "location": {"address1": "1517 S Fair Oaks Ave", "address2": "Ste B", "address3": "", "city": "South Pasadena", "zip_code": "91030", "country": "US", "state": "CA", "display_address": ["1517 S Fair Oaks Ave", "Ste B", "South Pasadena, CA 91030"]}, "phone": "+18556547285", "display_phone": "(855) 654-7285", "distance": 886.0023017637345}, {"id": "6OkYkW451_waMhUmYQ9SnA", "alias": "michael-sohl-supreme-lending-south-pasadena", "name": "Michael Sohl - Supreme Lending", "image_url": "https://s3-media1.fl.yelpcdn.com/bphoto/KxXnwK2627rvsD5YncCf9A/o.jpg", "is_closed": false, "url": "https://www.yelp.com/biz/michael-sohl-supreme-lending-south-pasadena?adjust_creative=y4osxHmnMD1pXQYRCP96Jg&utm_campaign=yelp_api_v3&utm_medium=api_v3_business_search&utm_source=y4osxHmnMD1pXQYRCP96Jg", "review_count": 1, "categories": [{"alias": "mortgagebrokers", "title": "Mortgage Brokers"}], "rating": 5.0, "coordinates": {"latitude": 34.11601, "longitude": -118.1624}, "transactions": [], "location": {"address1": "630 Mission St", "address2": "Ste C-1", "address3": "", "city": "South Pasadena", "zip_code": "91030", "country": "US", "state": "CA", "display_address": ["630 Mission St", "Ste C-1", "South Pasadena, CA 91030"]}, "phone": "+16266576174", "display_phone": "(626) 657-6174", "distance": 1098.501339805347}, {"id": "WPTf708QQS9sMQ1x2unCQA", "alias": "mike-wu-curbperfect-real-estate-team-south-pasadena", "name": "Mike Wu - CurbPerfect Real Estate Team", "image_url": "https://s3-media2.fl.yelpcdn.com/bphoto/T4X5hFIBpsVY2l2ZbQrTrA/o.jpg", "is_closed": false, "url": "https://www.yelp.com/biz/mike-wu-curbperfect-real-estate-team-south-pasadena?adjust_creative=y4osxHmnMD1pXQYRCP96Jg&utm_campaign=yelp_api_v3&utm_medium=api_v3_business_search&utm_source=y4osxHmnMD1pXQYRCP96Jg", "review_count": 4, "categories": [{"alias": "realestateagents", "title": "Real Estate Agents"}, {"alias": "propertymgmt", "title": "Property Management"}], "rating": 5.0, "coordinates": {"latitude": 34.10368, "longitude": -118.15046}, "transactions": [], "location": {"address1": "1499 Huntington Dr", "address2": "", "address3": "Keller Williams Realty", "city": "South Pasadena", "zip_code": "91030", "country": "US", "state": "CA", "display_address": ["1499 Huntington Dr", "Keller Williams Realty", "South Pasadena, CA 91030"]}, "phone": "+13109898788", "display_phone": "(310) 989-8788", "distance": 1366.0937773092744}, {"id": "hJ_5xGKENRKhDcKPNT-X-Q", "alias": "keeler-dilbeck-realtors-south-pasadena-2", "name": "Keeler Dilbeck Realtors", "image_url": "https://s3-media4.fl.yelpcdn.com/bphoto/m2Y5cJfY0dAy5noAZZEt1g/o.jpg", "is_closed": false, "url": "https://www.yelp.com/biz/keeler-dilbeck-realtors-south-pasadena-2?adjust_creative=y4osxHmnMD1pXQYRCP96Jg&utm_campaign=yelp_api_v3&utm_medium=api_v3_business_search&utm_source=y4osxHmnMD1pXQYRCP96Jg", "review_count": 5, "categories": [{"alias": "realestatesvcs", "title": "Real Estate Services"}], "rating": 1.0, "coordinates": {"latitude": 34.1036834716797, "longitude": -118.150466918945}, "transactions": [], "location": {"address1": "1499 Huntington Dr", "address2": "Ste 100", "address3": "", "city": "South Pasadena", "zip_code": "91030", "country": "US", "state": "CA", "display_address": ["1499 Huntington Dr", "Ste 100", "South Pasadena, CA 91030"]}, "phone": "+16267993020", "display_phone": "(626) 799-3020", "distance": 1366.0937773092744}, {"id": "44RzLCwpiZqdBcJKl-y5LQ", "alias": "rob-schaumann-los-angeles-2", "name": "Rob Schaumann", "image_url": "https://s3-media2.fl.yelpcdn.com/bphoto/Rpq-QSIkmRPJ6OlZ8bY3VA/o.jpg", "is_closed": false, "url": "https://www.yelp.com/biz/rob-schaumann-los-angeles-2?adjust_creative=y4osxHmnMD1pXQYRCP96Jg&utm_campaign=yelp_api_v3&utm_medium=api_v3_business_search&utm_source=y4osxHmnMD1pXQYRCP96Jg", "review_count": 1, "categories": [{"alias": "realestateagents", "title": "Real Estate Agents"}], "rating": 5.0, "coordinates": {"latitude": 34.103683, "longitude": -118.150467}, "transactions": [], "location": {"address1": "1499 Huntington Dr", "address2": "Ste 100", "address3": "Dilbeck Real Estate", "city": "Los Angeles", "zip_code": "91030", "country": "US", "state": "CA", "display_address": ["1499 Huntington Dr", "Ste 100", "Dilbeck Real Estate", "Los Angeles, CA 91030"]}, "phone": "+16265904596", "display_phone": "(626) 590-4596", "distance": 1366.0937773092744}, {"id": "5224d04SY3RVW3upt3TrWw", "alias": "reda-beebe-dilbeck-real-estate-real-living-south-pasadena", "name": "Reda Beebe - Dilbeck Real Estate/Real Living", "image_url": "https://s3-media2.fl.yelpcdn.com/bphoto/w9vkdvcKBy0E2nT7uJIXsw/o.jpg", "is_closed": false, "url": "https://www.yelp.com/biz/reda-beebe-dilbeck-real-estate-real-living-south-pasadena?adjust_creative=y4osxHmnMD1pXQYRCP96Jg&utm_campaign=yelp_api_v3&utm_medium=api_v3_business_search&utm_source=y4osxHmnMD1pXQYRCP96Jg", "review_count": 1, "categories": [{"alias": "realestatesvcs", "title": "Real Estate Services"}, {"alias": "commercialrealestate", "title": "Commercial Real Estate"}], "rating": 5.0, "coordinates": {"latitude": 34.103683, "longitude": -118.150467}, "transactions": [], "location": {"address1": "1499 Huntington Dr", "address2": null, "address3": "", "city": "South Pasadena", "zip_code": "91030", "country": "US", "state": "CA", "display_address": ["1499 Huntington Dr", "South Pasadena, CA 91030"]}, "phone": "+13233949008", "display_phone": "(323) 394-9008", "distance": 1366.0937773092744}, {"id": "SYpQnh0P8DgorJqHzbv9eA", "alias": "new-shine-bathtub-refinishing-south-pasadena-2", "name": "New Shine Bathtub Refinishing", "image_url": "https://s3-media1.fl.yelpcdn.com/bphoto/XM59Gq92P79s6AGVgdFSWg/o.jpg", "is_closed": false, "url": "https://www.yelp.com/biz/new-shine-bathtub-refinishing-south-pasadena-2?adjust_creative=y4osxHmnMD1pXQYRCP96Jg&utm_campaign=yelp_api_v3&utm_medium=api_v3_business_search&utm_source=y4osxHmnMD1pXQYRCP96Jg", "review_count": 135, "categories": [{"alias": "refinishing", "title": "Refinishing Services"}], "rating": 4.5, "coordinates": {"latitude": 34.1146377, "longitude": -118.1654074}, "transactions": [], "location": {"address1": "927 1/2 Indiana", "address2": "", "address3": "", "city": "South Pasadena", "zip_code": "91030", "country": "US", "state": "CA", "display_address": ["927 1/2 Indiana", "South Pasadena, CA 91030"]}, "phone": "+16263609111", "display_phone": "(626) 360-9111", "distance": 1400.2491721521658}, {"id": "gRaTsiUdiRfrWI4rxdnd9A", "alias": "cardinal-management-group-south-pasadena", "name": "Cardinal Management Group", "image_url": "https://s3-media2.fl.yelpcdn.com/bphoto/I18bTeNzU7KRTvjkMU1cqA/o.jpg", "is_closed": false, "url": "https://www.yelp.com/biz/cardinal-management-group-south-pasadena?adjust_creative=y4osxHmnMD1pXQYRCP96Jg&utm_campaign=yelp_api_v3&utm_medium=api_v3_business_search&utm_source=y4osxHmnMD1pXQYRCP96Jg", "review_count": 64, "categories": [{"alias": "propertymgmt", "title": "Property Management"}], "rating": 4.0, "coordinates": {"latitude": 34.10344, "longitude": -118.15445}, "transactions": [], "location": {"address1": "1260 Huntington Dr", "address2": "Ste 104", "address3": "", "city": "South Pasadena", "zip_code": "91030", "country": "US", "state": "CA", "display_address": ["1260 Huntington Dr", "Ste 104", "South Pasadena, CA 91030"]}, "phone": "+13233490865", "display_phone": "(323) 349-0865", "distance": 1456.4421890214153}, {"id": "maZfJOcySViHm2_I5x2ttQ", "alias": "nancy-galarza-the-divine-real-estate-group-south-pasadena-3", "name": "Nancy Galarza - The Divine Real Estate Group", "image_url": "https://s3-media1.fl.yelpcdn.com/bphoto/2F_LSKx2SSgyasC9dBlzwg/o.jpg", "is_closed": false, "url": "https://www.yelp.com/biz/nancy-galarza-the-divine-real-estate-group-south-pasadena-3?adjust_creative=y4osxHmnMD1pXQYRCP96Jg&utm_campaign=yelp_api_v3&utm_medium=api_v3_business_search&utm_source=y4osxHmnMD1pXQYRCP96Jg", "review_count": 2, "categories": [{"alias": "realestateagents", "title": "Real Estate Agents"}], "rating": 3.0, "coordinates": {"latitude": 34.11187, "longitude": -118.1658}, "transactions": [], "location": {"address1": "406 Monterey Rd", "address2": "", "address3": "", "city": "South Pasadena", "zip_code": "91030", "country": "US", "state": "CA", "display_address": ["406 Monterey Rd", "South Pasadena, CA 91030"]}, "phone": "+15626528523", "display_phone": "(562) 652-8523", "distance": 1502.272901576501}, {"id": "13JGRDe4oDNp1LUPerV2zg", "alias": "huntington-group-south-pasadena-7", "name": "Huntington Group", "image_url": "https://s3-media2.fl.yelpcdn.com/bphoto/F0MQMqoZPhYl7q3ufF0eZQ/o.jpg", "is_closed": false, "url": "https://www.yelp.com/biz/huntington-group-south-pasadena-7?adjust_creative=y4osxHmnMD1pXQYRCP96Jg&utm_campaign=yelp_api_v3&utm_medium=api_v3_business_search&utm_source=y4osxHmnMD1pXQYRCP96Jg", "review_count": 9, "categories": [{"alias": "realestateagents", "title": "Real Estate Agents"}, {"alias": "realestatesvcs", "title": "Real Estate Services"}, {"alias": "mortgagelenders", "title": "Mortgage Lenders"}], "rating": 5.0, "coordinates": {"latitude": 34.1123155, "longitude": -118.168975}, "transactions": [], "location": {"address1": "305 Pasadena Ave", "address2": "", "address3": "", "city": "South Pasadena", "zip_code": "91030", "country": "US", "state": "CA", "display_address": ["305 Pasadena Ave", "South Pasadena, CA 91030"]}, "phone": "+16264038230", "display_phone": "(626) 403-8230", "distance": 1752.7484947386474}, {"id": "8Xjd15RYBe_Ti8gwo-Ht0w", "alias": "staysi-sill-at-say-yes-real-estate-south-pasadena-2", "name": "Staysi Sill at Say Yes Real Estate", "image_url": "https://s3-media3.fl.yelpcdn.com/bphoto/rTvqApm6FwGoZblPAOq52Q/o.jpg", "is_closed": false, "url": "https://www.yelp.com/biz/staysi-sill-at-say-yes-real-estate-south-pasadena-2?adjust_creative=y4osxHmnMD1pXQYRCP96Jg&utm_campaign=yelp_api_v3&utm_medium=api_v3_business_search&utm_source=y4osxHmnMD1pXQYRCP96Jg", "review_count": 2, "categories": [{"alias": "realestateagents", "title": "Real Estate Agents"}], "rating": 5.0, "coordinates": {"latitude": 34.11228, "longitude": -118.16873}, "transactions": [], "location": {"address1": "305 Pasadena Ave", "address2": null, "address3": "Huntington Group", "city": "South Pasadena", "zip_code": "91030", "country": "US", "state": "CA", "display_address": ["305 Pasadena Ave", "Huntington Group", "South Pasadena, CA 91030"]}, "phone": "+16266762887", "display_phone": "(626) 676-2887", "distance": 1752.7484947386474}, {"id": "e0j-8m99cITuk33793_6kw", "alias": "sam-andress-huntington-group-south-pasadena-3", "name": "Sam Andress - Huntington Group", "image_url": "https://s3-media1.fl.yelpcdn.com/bphoto/rlABxEchlJN60AVqckrwaA/o.jpg", "is_closed": false, "url": "https://www.yelp.com/biz/sam-andress-huntington-group-south-pasadena-3?adjust_creative=y4osxHmnMD1pXQYRCP96Jg&utm_campaign=yelp_api_v3&utm_medium=api_v3_business_search&utm_source=y4osxHmnMD1pXQYRCP96Jg", "review_count": 6, "categories": [{"alias": "realestateagents", "title": "Real Estate Agents"}], "rating": 5.0, "coordinates": {"latitude": 34.1123155, "longitude": -118.168975}, "transactions": [], "location": {"address1": "305 Pasadena Ave", "address2": null, "address3": "", "city": "South Pasadena", "zip_code": "91030", "country": "US", "state": "CA", "display_address": ["305 Pasadena Ave", "South Pasadena, CA 91030"]}, "phone": "+16264197793", "display_phone": "(626) 419-7793", "distance": 1753.3749181474925}, {"id": "UpXPRvMgpVzkxENlyzUwEA", "alias": "nareg-kaprielian-huntington-mortgage-south-pasedena", "name": "Nareg Kaprielian - Huntington Mortgage", "image_url": "https://s3-media2.fl.yelpcdn.com/bphoto/Rabzj6l2D4JEItuLGMJy3w/o.jpg", "is_closed": false, "url": "https://www.yelp.com/biz/nareg-kaprielian-huntington-mortgage-south-pasedena?adjust_creative=y4osxHmnMD1pXQYRCP96Jg&utm_campaign=yelp_api_v3&utm_medium=api_v3_business_search&utm_source=y4osxHmnMD1pXQYRCP96Jg", "review_count": 69, "categories": [{"alias": "mortgagebrokers", "title": "Mortgage Brokers"}], "rating": 5.0, "coordinates": {"latitude": 34.11228, "longitude": -118.16873}, "transactions": [], "location": {"address1": "305 Pasedena Ave", "address2": "", "address3": "", "city": "South Pasedena", "zip_code": "91030", "country": "US", "state": "CA", "display_address": ["305 Pasedena Ave", "South Pasedena, CA 91030"]}, "phone": "+18189038204", "display_phone": "(818) 903-8204", "distance": 1753.3749181474925}, {"id": "hK9YwuKZUuPWACxwKAPI9Q", "alias": "equity-smart-home-loans-south-pasadena-4", "name": "Equity Smart Home Loans", "image_url": "https://s3-media2.fl.yelpcdn.com/bphoto/U6ny-GV3cDipA_3RGHBm-Q/o.jpg", "is_closed": false, "url": "https://www.yelp.com/biz/equity-smart-home-loans-south-pasadena-4?adjust_creative=y4osxHmnMD1pXQYRCP96Jg&utm_campaign=yelp_api_v3&utm_medium=api_v3_business_search&utm_source=y4osxHmnMD1pXQYRCP96Jg", "review_count": 32, "categories": [{"alias": "mortgagebrokers", "title": "Mortgage Brokers"}], "rating": 5.0, "coordinates": {"latitude": 34.1113892111548, "longitude": -118.174717643073}, "transactions": [], "location": {"address1": "1010 Sycamore Ave", "address2": "Ste 106", "address3": "", "city": "South Pasadena", "zip_code": "91030", "country": "US", "state": "CA", "display_address": ["1010 Sycamore Ave", "Ste 106", "South Pasadena, CA 91030"]}, "phone": "+13232584317", "display_phone": "(323) 258-4317", "distance": 2308.137550669007}]