[{"id": "cEyYkfQ10hfC6LQAcP6uCg", "alias": "arnes-garage-door-south-pasadena", "name": "Arnes Garage Door", "image_url": "https://s3-media1.fl.yelpcdn.com/bphoto/LMrKgBVox9ddA3hMtArGfg/o.jpg", "is_closed": false, "url": "https://www.yelp.com/biz/arnes-garage-door-south-pasadena?adjust_creative=y4osxHmnMD1pXQYRCP96Jg&utm_campaign=yelp_api_v3&utm_medium=api_v3_business_search&utm_source=y4osxHmnMD1pXQYRCP96Jg", "review_count": 17, "categories": [{"alias": "garage_door_services", "title": "Garage Door Services"}], "rating": 4.5, "coordinates": {"latitude": 34.11738, "longitude": -118.15083}, "transactions": [], "location": {"address1": "", "address2": null, "address3": null, "city": "South Pasadena", "zip_code": "91030", "country": "US", "state": "CA", "display_address": ["South Pasadena, CA 91030"]}, "phone": "+16264977004", "display_phone": "(626) 497-7004", "distance": 4.993195600113268}, {"id": "17ENttS__n-_LUv-qD5gUg", "alias": "hysell-and-heinz-south-pasadena", "name": "Hysell & Heinz", "image_url": "https://s3-media1.fl.yelpcdn.com/bphoto/-wIJRJVetkcu9pyh6z6d9w/o.jpg", "is_closed": false, "url": "https://www.yelp.com/biz/hysell-and-heinz-south-pasadena?adjust_creative=y4osxHmnMD1pXQYRCP96Jg&utm_campaign=yelp_api_v3&utm_medium=api_v3_business_search&utm_source=y4osxHmnMD1pXQYRCP96Jg", "review_count": 3, "categories": [{"alias": "realestateagents", "title": "Real Estate Agents"}], "rating": 5.0, "coordinates": {"latitude": 34.1173782348633, "longitude": -118.150833129883}, "transactions": [], "location": {"address1": null, "address2": null, "address3": "", "city": "South Pasadena", "zip_code": "91030", "country": "US", "state": "CA", "display_address": ["South Pasadena, CA 91030"]}, "phone": "+16264088883", "display_phone": "(626) 408-8883", "distance": 4.993195600113268}, {"id": "XkODIhe73sxmn3hXa8-zgw", "alias": "south-pasadena-locksmith-south-pasadena-4", "name": "South Pasadena Locksmith", "image_url": "https://s3-media4.fl.yelpcdn.com/bphoto/FdFVbV2b_2_jqzOCQs5Ajw/o.jpg", "is_closed": false, "url": "https://www.yelp.com/biz/south-pasadena-locksmith-south-pasadena-4?adjust_creative=y4osxHmnMD1pXQYRCP96Jg&utm_campaign=yelp_api_v3&utm_medium=api_v3_business_search&utm_source=y4osxHmnMD1pXQYRCP96Jg", "review_count": 17, "categories": [{"alias": "locksmiths", "title": "Keys & Locksmiths"}], "rating": 4.0, "coordinates": {"latitude": 34.1173782348633, "longitude": -118.150833129883}, "transactions": [], "location": {"address1": "", "address2": null, "address3": "", "city": "South Pasadena", "zip_code": "91030", "country": "US", "state": "CA", "display_address": ["South Pasadena, CA 91030"]}, "phone": "+16267882363", "display_phone": "(626) 788-2363", "distance": 4.993195600113268}, {"id": "XPfh0YkUVf1aCyvZqnJyAA", "alias": "m-and-h-locksmith-south-pasadena", "name": "M&H Locksmith", "image_url": "https://s3-media2.fl.yelpcdn.com/bphoto/1Pqwoxv-QZBzjWnBSn-6xA/o.jpg", "is_closed": false, "url": "https://www.yelp.com/biz/m-and-h-locksmith-south-pasadena?adjust_creative=y4osxHmnMD1pXQYRCP96Jg&utm_campaign=yelp_api_v3&utm_medium=api_v3_business_search&utm_source=y4osxHmnMD1pXQYRCP96Jg", "review_count": 225, "categories": [{"alias": "locksmiths", "title": "Keys & Locksmiths"}], "rating": 5.0, "coordinates": {"latitude": 34.1173782348633, "longitude": -118.150833129883}, "transactions": [], "location": {"address1": "", "address2": "", "address3": null, "city": "South Pasadena", "zip_code": "91030", "country": "US", "state": "CA", "display_address": ["South Pasadena, CA 91030"]}, "phone": "+18182876072", "display_phone": "(818) 287-6072", "distance": 4.993195600113268}, {"id": "jnTUirMQq2tqMrshW-XdDQ", "alias": "sicara-design-south-pasadena", "name": "Sicara Design", "image_url": "https://s3-media1.fl.yelpcdn.com/bphoto/1Kxv8Xz83TMvny0YlO9mjg/o.jpg", "is_closed": false, "url": "https://www.yelp.com/biz/sicara-design-south-pasadena?adjust_creative=y4osxHmnMD1pXQYRCP96Jg&utm_campaign=yelp_api_v3&utm_medium=api_v3_business_search&utm_source=y4osxHmnMD1pXQYRCP96Jg", "review_count": 5, "categories": [{"alias": "homestaging", "title": "Home Staging"}, {"alias": "interiordesign", "title": "Interior Design"}], "rating": 4.0, "coordinates": {"latitude": 34.1173782348633, "longitude": -118.150833129883}, "transactions": [], "location": {"address1": null, "address2": null, "address3": "", "city": "South Pasadena", "zip_code": "91030", "country": "US", "state": "CA", "display_address": ["South Pasadena, CA 91030"]}, "phone": "+15105200677", "display_phone": "(510) 520-0677", "distance": 4.993195600113268}, {"id": "fUSDKHeCVaXY3FhI0YCs9Q", "alias": "fair-oaks-pharmacy-and-soda-fountain-south-pasadena", "name": "Fair Oaks Pharmacy and Soda Fountain", "image_url": "https://s3-media3.fl.yelpcdn.com/bphoto/mQsYXz6UmrSy7tzvuYMy4g/o.jpg", "is_closed": false, "url": "https://www.yelp.com/biz/fair-oaks-pharmacy-and-soda-fountain-south-pasadena?adjust_creative=y4osxHmnMD1pXQYRCP96Jg&utm_campaign=yelp_api_v3&utm_medium=api_v3_business_search&utm_source=y4osxHmnMD1pXQYRCP96Jg", "review_count": 759, "categories": [{"alias": "drugstores", "title": "Drugstores"}, {"alias": "icecream", "title": "Ice Cream & Frozen Yogurt"}, {"alias": "burgers", "title": "Burgers"}], "rating": 3.5, "coordinates": {"latitude": 34.1160468883484, "longitude": -118.150555101816}, "transactions": [], "price": "$$", "location": {"address1": "1526 Mission St", "address2": "", "address3": "", "city": "South Pasadena", "zip_code": "91030", "country": "US", "state": "CA", "display_address": ["1526 Mission St", "South Pasadena, CA 91030"]}, "phone": "+16267991414", "display_phone": "(626) 799-1414", "distance": 24.215487367701314}, {"id": "esjYV1O1Hu9H06VvnFq2uA", "alias": "wireless-plus-verizon-authorized-retailer-south-pasadena", "name": "Wireless Plus, Verizon Authorized Retailer", "image_url": "https://s3-media3.fl.yelpcdn.com/bphoto/Tjm8xkYvC2p7FNsD4OAhbQ/o.jpg", "is_closed": false, "url": "https://www.yelp.com/biz/wireless-plus-verizon-authorized-retailer-south-pasadena?adjust_creative=y4osxHmnMD1pXQYRCP96Jg&utm_campaign=yelp_api_v3&utm_medium=api_v3_business_search&utm_source=y4osxHmnMD1pXQYRCP96Jg", "review_count": 28, "categories": [{"alias": "mobilephones", "title": "Mobile Phones"}, {"alias": "cellphoneaccessories", "title": "Mobile Phone Accessories"}], "rating": 3.5, "coordinates": {"latitude": 34.1160834, "longitude": -118.1502051}, "transactions": [], "price": "$$$", "location": {"address1": "816 Fair Oaks Ave", "address2": "", "address3": "", "city": "South Pasadena", "zip_code": "91030", "country": "US", "state": "CA", "display_address": ["816 Fair Oaks Ave", "South Pasadena, CA 91030"]}, "phone": "+16264414000", "display_phone": "(626) 441-4000", "distance": 25.859991123638455}, {"id": "oawi_lbMNDcY0IGag38deA", "alias": "bryant-companies-south-pasadena", "name": "Bryant Companies", "image_url": "https://s3-media3.fl.yelpcdn.com/bphoto/CnD7k9AlWQsKd1LY_9ZROQ/o.jpg", "is_closed": false, "url": "https://www.yelp.com/biz/bryant-companies-south-pasadena?adjust_creative=y4osxHmnMD1pXQYRCP96Jg&utm_campaign=yelp_api_v3&utm_medium=api_v3_business_search&utm_source=y4osxHmnMD1pXQYRCP96Jg", "review_count": 58, "categories": [{"alias": "propertymgmt", "title": "Property Management"}, {"alias": "realestateagents", "title": "Real Estate Agents"}], "rating": 3.5, "coordinates": {"latitude": 34.1162067, "longitude": -118.1502051}, "transactions": [], "location": {"address1": "812 Fair Oaks Ave", "address2": null, "address3": null, "city": "South Pasadena", "zip_code": "91030", "country": "US", "state": "CA", "display_address": ["812 Fair Oaks Ave", "South Pasadena, CA 91030"]}, "phone": "+16264413141", "display_phone": "(626) 441-3141", "distance": 30.77802004248578}, {"id": "0CwyIHvSA0l5I-cRn31FVA", "alias": "marc-ellis-trusted-real-estate-advsior-south-pasadena", "name": "Marc Ellis - Trusted Real Estate Advsior", "image_url": "https://s3-media3.fl.yelpcdn.com/bphoto/QYzaDElzXnNostixLb3WmA/o.jpg", "is_closed": false, "url": "https://www.yelp.com/biz/marc-ellis-trusted-real-estate-advsior-south-pasadena?adjust_creative=y4osxHmnMD1pXQYRCP96Jg&utm_campaign=yelp_api_v3&utm_medium=api_v3_business_search&utm_source=y4osxHmnMD1pXQYRCP96Jg", "review_count": 7, "categories": [{"alias": "realestateagents", "title": "Real Estate Agents"}], "rating": 4.5, "coordinates": {"latitude": 34.1163128, "longitude": -118.1500862}, "transactions": [], "location": {"address1": "812 Fair Oaks Ave", "address2": "", "address3": "", "city": "South Pasadena", "zip_code": "91030", "country": "US", "state": "CA", "display_address": ["812 Fair Oaks Ave", "South Pasadena, CA 91030"]}, "phone": "+16263186844", "display_phone": "(626) 318-6844", "distance": 30.77802004248578}, {"id": "4nQRZTjBLTFIcx_6oKw4Cg", "alias": "fair-oaks-cigars-and-spirits-south-pasadena-2", "name": "Fair Oaks Cigars & Spirits", "image_url": "https://s3-media3.fl.yelpcdn.com/bphoto/UyaPTmWJ0DrqAGjphHZinQ/o.jpg", "is_closed": false, "url": "https://www.yelp.com/biz/fair-oaks-cigars-and-spirits-south-pasadena-2?adjust_creative=y4osxHmnMD1pXQYRCP96Jg&utm_campaign=yelp_api_v3&utm_medium=api_v3_business_search&utm_source=y4osxHmnMD1pXQYRCP96Jg", "review_count": 72, "categories": [{"alias": "tobaccoshops", "title": "Tobacco Shops"}, {"alias": "beer_and_wine", "title": "Beer, Wine & Spirits"}], "rating": 4.5, "coordinates": {"latitude": 34.1164477, "longitude": -118.1501682}, "transactions": [], "price": "$$", "location": {"address1": "806 Fair Oaks Ave", "address2": "", "address3": "", "city": "South Pasadena", "zip_code": "91030", "country": "US", "state": "CA", "display_address": ["806 Fair Oaks Ave", "South Pasadena, CA 91030"]}, "phone": "+16264411457", "display_phone": "(626) 441-1457", "distance": 40.521602878025774}, {"id": "VFYQofFUA-x3a6eRYPqAKQ", "alias": "anthony-the-tailor-south-pasadena", "name": "Anthony the Tailor", "image_url": "https://s3-media3.fl.yelpcdn.com/bphoto/ityMHTmw3zaaMWaGSXKsJg/o.jpg", "is_closed": false, "url": "https://www.yelp.com/biz/anthony-the-tailor-south-pasadena?adjust_creative=y4osxHmnMD1pXQYRCP96Jg&utm_campaign=yelp_api_v3&utm_medium=api_v3_business_search&utm_source=y4osxHmnMD1pXQYRCP96Jg", "review_count": 24, "categories": [{"alias": "sewingalterations", "title": "Sewing & Alterations"}], "rating": 3.5, "coordinates": {"latitude": 34.116127, "longitude": -118.150619}, "transactions": [], "location": {"address1": "1520 Mission St", "address2": "", "address3": "", "city": "South Pasadena", "zip_code": "91030", "country": "US", "state": "CA", "display_address": ["1520 Mission St", "South Pasadena, CA 91030"]}, "phone": "+16267990750", "display_phone": "(626) 799-0750", "distance": 42.554943092875504}, {"id": "NcaxVZYClL1vsRGIIsAl4A", "alias": "reimagine-your-home-south-pasadena", "name": "Reimagine Your Home", "image_url": "https://s3-media2.fl.yelpcdn.com/bphoto/Mghy-VekvwodH3z8F0VROQ/o.jpg", "is_closed": false, "url": "https://www.yelp.com/biz/reimagine-your-home-south-pasadena?adjust_creative=y4osxHmnMD1pXQYRCP96Jg&utm_campaign=yelp_api_v3&utm_medium=api_v3_business_search&utm_source=y4osxHmnMD1pXQYRCP96Jg", "review_count": 15, "categories": [{"alias": "flooring", "title": "Flooring"}, {"alias": "blinds", "title": "Shades & Blinds"}, {"alias": "carpeting", "title": "Carpeting"}], "rating": 4.0, "coordinates": {"latitude": 34.1161329, "longitude": -118.1508968}, "transactions": [], "location": {"address1": "1518 Mission St", "address2": null, "address3": null, "city": "South Pasadena", "zip_code": "91030", "country": "US", "state": "CA", "display_address": ["1518 Mission St", "South Pasadena, CA 91030"]}, "phone": "+16267993656", "display_phone": "(626) 799-3656", "distance": 55.06215588278632}, {"id": "LsFUmMtIo7XxhHQffint_w", "alias": "camille-depedrini-boutique-south-pasadena", "name": "Camille DePedrini Boutique", "image_url": "https://s3-media3.fl.yelpcdn.com/bphoto/JjOx_A58g8Az7ZBQGrpE9A/o.jpg", "is_closed": false, "url": "https://www.yelp.com/biz/camille-depedrini-boutique-south-pasadena?adjust_creative=y4osxHmnMD1pXQYRCP96Jg&utm_campaign=yelp_api_v3&utm_medium=api_v3_business_search&utm_source=y4osxHmnMD1pXQYRCP96Jg", "review_count": 13, "categories": [{"alias": "womenscloth", "title": "Women's Clothing"}, {"alias": "accessories", "title": "Accessories"}, {"alias": "shoes", "title": "Shoe Stores"}], "rating": 4.5, "coordinates": {"latitude": 34.115878903632, "longitude": -118.150849592742}, "transactions": [], "price": "$$$", "location": {"address1": "1516 Mission St", "address2": "", "address3": "", "city": "South Pasadena", "zip_code": "91030", "country": "US", "state": "CA", "display_address": ["1516 Mission St", "South Pasadena, CA 91030"]}, "phone": "+16264417868", "display_phone": "(626) 441-7868", "distance": 62.83916471129722}, {"id": "rolP6nQh2jrTulMYZTzrpw", "alias": "rue-de-mimo-south-pasadena", "name": "Rue De Mimo", "image_url": "https://s3-media2.fl.yelpcdn.com/bphoto/ZMuRrbFAvF6n3D316OV-WA/o.jpg", "is_closed": false, "url": "https://www.yelp.com/biz/rue-de-mimo-south-pasadena?adjust_creative=y4osxHmnMD1pXQYRCP96Jg&utm_campaign=yelp_api_v3&utm_medium=api_v3_business_search&utm_source=y4osxHmnMD1pXQYRCP96Jg", "review_count": 31, "categories": [{"alias": "womenscloth", "title": "Women's Clothing"}, {"alias": "accessories", "title": "Accessories"}, {"alias": "jewelry", "title": "Jewelry"}], "rating": 4.5, "coordinates": {"latitude": 34.1159673, "longitude": -118.1507944}, "transactions": [], "price": "$$$", "location": {"address1": "1514 Mission St", "address2": "", "address3": "", "city": "South Pasadena", "zip_code": "91030", "country": "US", "state": "CA", "display_address": ["1514 Mission St", "South Pasadena, CA 91030"]}, "phone": "+16264412690", "display_phone": "(626) 441-2690", "distance": 65.65112735443026}, {"id": "QI0fSSpy9K7LX4LW_5ydyQ", "alias": "the-urban-pet-south-pasadena", "name": "The Urban Pet", "image_url": "https://s3-media1.fl.yelpcdn.com/bphoto/HU1clB53mgqBZHpc7Rrrdg/o.jpg", "is_closed": false, "url": "https://www.yelp.com/biz/the-urban-pet-south-pasadena?adjust_creative=y4osxHmnMD1pXQYRCP96Jg&utm_campaign=yelp_api_v3&utm_medium=api_v3_business_search&utm_source=y4osxHmnMD1pXQYRCP96Jg", "review_count": 85, "categories": [{"alias": "petstore", "title": "Pet Stores"}, {"alias": "pet_training", "title": "Pet Training"}, {"alias": "groomer", "title": "Pet Groomers"}], "rating": 4.5, "coordinates": {"latitude": 34.1155643722661, "longitude": -118.149974427202}, "transactions": [], "location": {"address1": "900 Fair Oaks Ave", "address2": "", "address3": "", "city": "South Pasadena", "zip_code": "91030", "country": "US", "state": "CA", "display_address": ["900 Fair Oaks Ave", "South Pasadena, CA 91030"]}, "phone": "+16264039100", "display_phone": "(626) 403-9100", "distance": 66.67524072020481}, {"id": "SSYLP7C5tcj8KQ0V4kyewQ", "alias": "marz-south-pasadena", "name": "Marz", "image_url": "https://s3-media4.fl.yelpcdn.com/bphoto/rbpxpwLwl_Z0uit4c_uuzQ/o.jpg", "is_closed": false, "url": "https://www.yelp.com/biz/marz-south-pasadena?adjust_creative=y4osxHmnMD1pXQYRCP96Jg&utm_campaign=yelp_api_v3&utm_medium=api_v3_business_search&utm_source=y4osxHmnMD1pXQYRCP96Jg", "review_count": 31, "categories": [{"alias": "giftshops", "title": "Gift Shops"}, {"alias": "vintage", "title": "Used, Vintage & Consignment"}, {"alias": "homedecor", "title": "Home Decor"}], "rating": 4.0, "coordinates": {"latitude": 34.11615, "longitude": -118.15095}, "transactions": [], "price": "$$", "location": {"address1": "1512 Mission St", "address2": "", "address3": "", "city": "South Pasadena", "zip_code": "91030", "country": "US", "state": "CA", "display_address": ["1512 Mission St", "South Pasadena, CA 91030"]}, "phone": "+16267994032", "display_phone": "(626) 799-4032", "distance": 73.87720451456654}, {"id": "2Kg1rLV1GX3zWgkPk_DsYg", "alias": "the-dinosaur-farm-south-pasadena", "name": "The Dinosaur Farm", "image_url": "https://s3-media1.fl.yelpcdn.com/bphoto/AbTI1PHvTN6pXiTWY8wQGw/o.jpg", "is_closed": false, "url": "https://www.yelp.com/biz/the-dinosaur-farm-south-pasadena?adjust_creative=y4osxHmnMD1pXQYRCP96Jg&utm_campaign=yelp_api_v3&utm_medium=api_v3_business_search&utm_source=y4osxHmnMD1pXQYRCP96Jg", "review_count": 65, "categories": [{"alias": "toys", "title": "Toy Stores"}], "rating": 4.5, "coordinates": {"latitude": 34.1159549, "longitude": -118.1512533}, "transactions": [], "price": "$$", "location": {"address1": "1510 Mission St", "address2": "", "address3": "", "city": "South Pasadena", "zip_code": "91030", "country": "US", "state": "CA", "display_address": ["1510 Mission St", "South Pasadena, CA 91030"]}, "phone": "+16264412767", "display_phone": "(626) 441-2767", "distance": 81.25714334023903}, {"id": "ZBg2gjAPjy7sPsO_4lDcjw", "alias": "chucks-appliance-service-south-pasadena", "name": "Chucks Appliance Service", "image_url": "https://s3-media3.fl.yelpcdn.com/bphoto/24UFTnfrYVD9Gd3dJx_Apw/o.jpg", "is_closed": false, "url": "https://www.yelp.com/biz/chucks-appliance-service-south-pasadena?adjust_creative=y4osxHmnMD1pXQYRCP96Jg&utm_campaign=yelp_api_v3&utm_medium=api_v3_business_search&utm_source=y4osxHmnMD1pXQYRCP96Jg", "review_count": 33, "categories": [{"alias": "homeappliancerepair", "title": "Appliances & Repair"}], "rating": 3.0, "coordinates": {"latitude": 34.11536, "longitude": -118.15076}, "transactions": [], "location": {"address1": "917 Fair Oaks Ave", "address2": "", "address3": "", "city": "South Pasadena", "zip_code": "91030", "country": "US", "state": "CA", "display_address": ["917 Fair Oaks Ave", "South Pasadena, CA 91030"]}, "phone": "+16267921231", "display_phone": "(626) 792-1231", "distance": 88.39136319285237}, {"id": "wUCfh1Vj1-atudv9B_bSuw", "alias": "speers-tv-south-pasadena", "name": "Speers TV", "image_url": "https://s3-media3.fl.yelpcdn.com/bphoto/hlLi82Cn2phy2R9OA9BbnQ/o.jpg", "is_closed": false, "url": "https://www.yelp.com/biz/speers-tv-south-pasadena?adjust_creative=y4osxHmnMD1pXQYRCP96Jg&utm_campaign=yelp_api_v3&utm_medium=api_v3_business_search&utm_source=y4osxHmnMD1pXQYRCP96Jg", "review_count": 43, "categories": [{"alias": "electronics", "title": "Electronics"}, {"alias": "electronicsrepair", "title": "Electronics Repair"}, {"alias": "hometheatreinstallation", "title": "Home Theatre Installation"}], "rating": 5.0, "coordinates": {"latitude": 34.11531, "longitude": -118.15076}, "transactions": [], "price": "$$", "location": {"address1": "919 Fair Oaks Ave", "address2": "", "address3": "", "city": "South Pasadena", "zip_code": "91030", "country": "US", "state": "CA", "display_address": ["919 Fair Oaks Ave", "South Pasadena, CA 91030"]}, "phone": "+16267993639", "display_phone": "(626) 799-3639", "distance": 93.89250411343035}, {"id": "eboONjZQZDSF7-mnY2M0fA", "alias": "luchas-comfort-footwear-south-pasadena", "name": "Lucha's Comfort Footwear", "image_url": "https://s3-media2.fl.yelpcdn.com/bphoto/Ej-UJYz-eIKA78veNXp7FQ/o.jpg", "is_closed": false, "url": "https://www.yelp.com/biz/luchas-comfort-footwear-south-pasadena?adjust_creative=y4osxHmnMD1pXQYRCP96Jg&utm_campaign=yelp_api_v3&utm_medium=api_v3_business_search&utm_source=y4osxHmnMD1pXQYRCP96Jg", "review_count": 123, "categories": [{"alias": "shoes", "title": "Shoe Stores"}], "rating": 3.0, "coordinates": {"latitude": 34.1152496337891, "longitude": -118.150772094727}, "transactions": [], "price": "$$$", "location": {"address1": "921 Fair Oaks Ave", "address2": "", "address3": "", "city": "South Pasadena", "zip_code": "91030", "country": "US", "state": "CA", "display_address": ["921 Fair Oaks Ave", "South Pasadena, CA 91030"]}, "phone": "+16267996891", "display_phone": "(626) 799-6891", "distance": 103.34711927112058}, {"id": "8VyzcYo8gXXtNJxzHLllAQ", "alias": "pets-delight-south-pasadena", "name": "Pet's Delight", "image_url": "https://s3-media2.fl.yelpcdn.com/bphoto/mIsEWCuXsxnSE2yBwUnlpg/o.jpg", "is_closed": false, "url": "https://www.yelp.com/biz/pets-delight-south-pasadena?adjust_creative=y4osxHmnMD1pXQYRCP96Jg&utm_campaign=yelp_api_v3&utm_medium=api_v3_business_search&utm_source=y4osxHmnMD1pXQYRCP96Jg", "review_count": 119, "categories": [{"alias": "petstore", "title": "Pet Stores"}, {"alias": "groomer", "title": "Pet Groomers"}], "rating": 2.5, "coordinates": {"latitude": 34.11699, "longitude": -118.15076}, "transactions": [], "location": {"address1": "725 Fair Oaks Ave", "address2": "", "address3": "", "city": "South Pasadena", "zip_code": "91030", "country": "US", "state": "CA", "display_address": ["725 Fair Oaks Ave", "South Pasadena, CA 91030"]}, "phone": "+16267992935", "display_phone": "(626) 799-2935", "distance": 105.31624298948717}, {"id": "iYOH05hypEWznubCh1hgEQ", "alias": "rite-aid-south-pasadena", "name": "Rite Aid", "image_url": "https://s3-media4.fl.yelpcdn.com/bphoto/In1cTgugU2YZ8KElpEob5g/o.jpg", "is_closed": false, "url": "https://www.yelp.com/biz/rite-aid-south-pasadena?adjust_creative=y4osxHmnMD1pXQYRCP96Jg&utm_campaign=yelp_api_v3&utm_medium=api_v3_business_search&utm_source=y4osxHmnMD1pXQYRCP96Jg", "review_count": 65, "categories": [{"alias": "drugstores", "title": "Drugstores"}, {"alias": "convenience", "title": "Convenience Stores"}], "rating": 3.0, "coordinates": {"latitude": 34.11517, "longitude": -118.149928}, "transactions": [], "price": "$", "location": {"address1": "914 Fair Oaks Ave", "address2": "", "address3": "", "city": "South Pasadena", "zip_code": "91030", "country": "US", "state": "CA", "display_address": ["914 Fair Oaks Ave", "South Pasadena, CA 91030"]}, "phone": "+16264413702", "display_phone": "(626) 441-3702", "distance": 108.93417372791487}, {"id": "SE2hXE9pJqjb77qHnNStMA", "alias": "kens-shoes-south-pasadena", "name": "Ken's Shoes", "image_url": "https://s3-media1.fl.yelpcdn.com/bphoto/gWRv6fDJqFz-R6v9MABQLw/o.jpg", "is_closed": false, "url": "https://www.yelp.com/biz/kens-shoes-south-pasadena?adjust_creative=y4osxHmnMD1pXQYRCP96Jg&utm_campaign=yelp_api_v3&utm_medium=api_v3_business_search&utm_source=y4osxHmnMD1pXQYRCP96Jg", "review_count": 21, "categories": [{"alias": "shoes", "title": "Shoe Stores"}], "rating": 4.0, "coordinates": {"latitude": 34.1173515319824, "longitude": -118.150802612305}, "transactions": [], "price": "$$", "location": {"address1": "711 Fair Oaks Ave", "address2": "", "address3": "", "city": "South Pasadena", "zip_code": "91030", "country": "US", "state": "CA", "display_address": ["711 Fair Oaks Ave", "South Pasadena, CA 91030"]}, "phone": "+16267995380", "display_phone": "(626) 799-5380", "distance": 131.40414634178862}, {"id": "hpapCTl6bQ4rgfdUadDl2w", "alias": "wells-fargo-bank-south-pasadena-4", "name": "Wells Fargo Bank", "image_url": "https://s3-media2.fl.yelpcdn.com/bphoto/IGm0BTOo-_Tyd2gFNb8Vxg/o.jpg", "is_closed": false, "url": "https://www.yelp.com/biz/wells-fargo-bank-south-pasadena-4?adjust_creative=y4osxHmnMD1pXQYRCP96Jg&utm_campaign=yelp_api_v3&utm_medium=api_v3_business_search&utm_source=y4osxHmnMD1pXQYRCP96Jg", "review_count": 32, "categories": [{"alias": "banks", "title": "Banks & Credit Unions"}], "rating": 3.0, "coordinates": {"latitude": 34.1147, "longitude": -118.14993}, "transactions": [], "location": {"address1": "1000 Fair Oaks Ave", "address2": "", "address3": "", "city": "South Pasadena", "zip_code": "91030", "country": "US", "state": "CA", "display_address": ["1000 Fair Oaks Ave", "South Pasadena, CA 91030"]}, "phone": "+16267994144", "display_phone": "(626) 799-4144", "distance": 160.6758895518374}, {"id": "qeKyOB-nlkYuZhKAAOZayw", "alias": "cantu-graphics-south-pasadena", "name": "Cantu Graphics", "image_url": "https://s3-media4.fl.yelpcdn.com/bphoto/-2XxkGcifRl-piqfFQ-E9Q/o.jpg", "is_closed": false, "url": "https://www.yelp.com/biz/cantu-graphics-south-pasadena?adjust_creative=y4osxHmnMD1pXQYRCP96Jg&utm_campaign=yelp_api_v3&utm_medium=api_v3_business_search&utm_source=y4osxHmnMD1pXQYRCP96Jg", "review_count": 78, "categories": [{"alias": "copyshops", "title": "Printing Services"}, {"alias": "web_design", "title": "Web Design"}, {"alias": "graphicdesign", "title": "Graphic Design"}], "rating": 4.5, "coordinates": {"latitude": 34.1156528, "longitude": -118.1522285}, "transactions": [], "location": {"address1": "1421 Mission St", "address2": "", "address3": "", "city": "South Pasadena", "zip_code": "91030", "country": "US", "state": "CA", "display_address": ["1421 Mission St", "South Pasadena, CA 91030"]}, "phone": "+16264415631", "display_phone": "(626) 441-5631", "distance": 172.12435716670575}, {"id": "b35ekZHXCFW7jbP1rEx81Q", "alias": "at-and-t-store-south-pasadena", "name": "AT&T Store", "image_url": "https://s3-media2.fl.yelpcdn.com/bphoto/gqlKJINhE6tOPVlc2s1kiA/o.jpg", "is_closed": false, "url": "https://www.yelp.com/biz/at-and-t-store-south-pasadena?adjust_creative=y4osxHmnMD1pXQYRCP96Jg&utm_campaign=yelp_api_v3&utm_medium=api_v3_business_search&utm_source=y4osxHmnMD1pXQYRCP96Jg", "review_count": 42, "categories": [{"alias": "mobilephones", "title": "Mobile Phones"}, {"alias": "cellphoneaccessories", "title": "Mobile Phone Accessories"}], "rating": 3.0, "coordinates": {"latitude": 34.1177804879998, "longitude": -118.150165165645}, "transactions": [], "price": "$$", "location": {"address1": "712 Fair Oaks Blvd", "address2": "", "address3": "", "city": "South Pasadena", "zip_code": "91030", "country": "US", "state": "CA", "display_address": ["712 Fair Oaks Blvd", "South Pasadena, CA 91030"]}, "phone": "+16267997499", "display_phone": "(626) 799-7499", "distance": 187.27333793697807}, {"id": "pFWLKDZrdsSncbSC3JPpYA", "alias": "hans-beauty-store-south-pasadena-2", "name": "Han's Beauty Store", "image_url": "https://s3-media2.fl.yelpcdn.com/bphoto/GdDJHfFosDon_-FJ2jiNVg/o.jpg", "is_closed": false, "url": "https://www.yelp.com/biz/hans-beauty-store-south-pasadena-2?adjust_creative=y4osxHmnMD1pXQYRCP96Jg&utm_campaign=yelp_api_v3&utm_medium=api_v3_business_search&utm_source=y4osxHmnMD1pXQYRCP96Jg", "review_count": 20, "categories": [{"alias": "cosmetics", "title": "Cosmetics & Beauty Supply"}, {"alias": "othersalons", "title": "Nail Salons"}, {"alias": "hairstylists", "title": "Hair Stylists"}], "rating": 3.0, "coordinates": {"latitude": 34.1177565, "longitude": -118.1501851}, "transactions": [], "price": "$$", "location": {"address1": "700 Fair Oaks Ave", "address2": null, "address3": null, "city": "South Pasadena", "zip_code": "91030", "country": "US", "state": "CA", "display_address": ["700 Fair Oaks Ave", "South Pasadena, CA 91030"]}, "phone": "+16267995271", "display_phone": "(626) 799-5271", "distance": 230.23941101431433}, {"id": "ZVG0HWVsKm3Wg0L3jswGSA", "alias": "estate-jewelers-south-pasadena", "name": "Estate Jewelers", "image_url": "https://s3-media2.fl.yelpcdn.com/bphoto/IASRI2KRgvG2gEJNHdoNZQ/o.jpg", "is_closed": false, "url": "https://www.yelp.com/biz/estate-jewelers-south-pasadena?adjust_creative=y4osxHmnMD1pXQYRCP96Jg&utm_campaign=yelp_api_v3&utm_medium=api_v3_business_search&utm_source=y4osxHmnMD1pXQYRCP96Jg", "review_count": 55, "categories": [{"alias": "jewelry", "title": "Jewelry"}, {"alias": "watches", "title": "Watches"}, {"alias": "jewelryrepair", "title": "Jewelry Repair"}], "rating": 4.5, "coordinates": {"latitude": 34.1181822259191, "longitude": -118.149772882462}, "transactions": [], "price": "$$", "location": {"address1": "700 S Fair Oaks Ave", "address2": "Ste C", "address3": "", "city": "South Pasadena", "zip_code": "91030", "country": "US", "state": "CA", "display_address": ["700 S Fair Oaks Ave", "Ste C", "South Pasadena, CA 91030"]}, "phone": "+16264410621", "display_phone": "(626) 441-0621", "distance": 236.56303987015312}, {"id": "8Ft32mWtkRdc4brz8KABFg", "alias": "mission-gardens-south-pasadena", "name": "Mission Gardens", "image_url": "https://s3-media1.fl.yelpcdn.com/bphoto/KipPOcTZArHJpixd8DQ37Q/o.jpg", "is_closed": false, "url": "https://www.yelp.com/biz/mission-gardens-south-pasadena?adjust_creative=y4osxHmnMD1pXQYRCP96Jg&utm_campaign=yelp_api_v3&utm_medium=api_v3_business_search&utm_source=y4osxHmnMD1pXQYRCP96Jg", "review_count": 17, "categories": [{"alias": "florists", "title": "Florists"}, {"alias": "indoorlandscaping", "title": "Indoor Landscaping"}, {"alias": "homedecor", "title": "Home Decor"}], "rating": 5.0, "coordinates": {"latitude": 34.1139829, "longitude": -118.1502351}, "transactions": [], "location": {"address1": "1026 Fair Oaks", "address2": "", "address3": null, "city": "South Pasadena", "zip_code": "91030", "country": "US", "state": "CA", "display_address": ["1026 Fair Oaks", "South Pasadena, CA 91030"]}, "phone": "+13238649952", "display_phone": "(323) 864-9952", "distance": 236.67049891371465}, {"id": "O00D2aa9esxip2G2GJuwqw", "alias": "raphaels-world-south-pasadena", "name": "Raphael's World", "image_url": "", "is_closed": false, "url": "https://www.yelp.com/biz/raphaels-world-south-pasadena?adjust_creative=y4osxHmnMD1pXQYRCP96Jg&utm_campaign=yelp_api_v3&utm_medium=api_v3_business_search&utm_source=y4osxHmnMD1pXQYRCP96Jg", "review_count": 1, "categories": [{"alias": "jewelry", "title": "Jewelry"}], "rating": 4.0, "coordinates": {"latitude": 34.1139829, "longitude": -118.1502351}, "transactions": [], "price": "$", "location": {"address1": "1026 Fair Oaks Ave", "address2": "", "address3": "", "city": "South Pasadena", "zip_code": "91030", "country": "US", "state": "CA", "display_address": ["1026 Fair Oaks Ave", "South Pasadena, CA 91030"]}, "phone": "", "display_phone": "", "distance": 236.67049891371465}, {"id": "GOCBoJWzzZpc90eWB2KCCQ", "alias": "vana-watch-and-jewelry-south-pasadena", "name": "Vana Watch & Jewelry", "image_url": "https://s3-media3.fl.yelpcdn.com/bphoto/jabOqcm-0Sb_q03N3HphUA/o.jpg", "is_closed": false, "url": "https://www.yelp.com/biz/vana-watch-and-jewelry-south-pasadena?adjust_creative=y4osxHmnMD1pXQYRCP96Jg&utm_campaign=yelp_api_v3&utm_medium=api_v3_business_search&utm_source=y4osxHmnMD1pXQYRCP96Jg", "review_count": 95, "categories": [{"alias": "watch_repair", "title": "Watch Repair"}, {"alias": "jewelry", "title": "Jewelry"}, {"alias": "watches", "title": "Watches"}], "rating": 4.5, "coordinates": {"latitude": 34.11548, "longitude": -118.15273}, "transactions": [], "price": "$$", "location": {"address1": "1401 Mission St", "address2": "Ste C6", "address3": "", "city": "South Pasadena", "zip_code": "91030", "country": "US", "state": "CA", "display_address": ["1401 Mission St", "Ste C6", "South Pasadena, CA 91030"]}, "phone": "+16267999919", "display_phone": "(626) 799-9919", "distance": 241.02682132885968}, {"id": "GLsFoON2UFbc4nQ07MYQPA", "alias": "south-pasadena-eye-care-optometry-south-pasadena", "name": "South Pasadena Eye Care Optometry", "image_url": "https://s3-media4.fl.yelpcdn.com/bphoto/5GRdtwlswu3TrpJyOTfBBQ/o.jpg", "is_closed": false, "url": "https://www.yelp.com/biz/south-pasadena-eye-care-optometry-south-pasadena?adjust_creative=y4osxHmnMD1pXQYRCP96Jg&utm_campaign=yelp_api_v3&utm_medium=api_v3_business_search&utm_source=y4osxHmnMD1pXQYRCP96Jg", "review_count": 36, "categories": [{"alias": "optometrists", "title": "Optometrists"}, {"alias": "opticians", "title": "Eyewear & Opticians"}], "rating": 5.0, "coordinates": {"latitude": 34.1137619018555, "longitude": -118.150436401367}, "transactions": [], "price": "$$", "location": {"address1": "1103 Fair Oaks Ave", "address2": "", "address3": "", "city": "South Pasadena", "zip_code": "91030", "country": "US", "state": "CA", "display_address": ["1103 Fair Oaks Ave", "South Pasadena, CA 91030"]}, "phone": "+16264410770", "display_phone": "(626) 441-0770", "distance": 260.2874360122659}, {"id": "r1IHWTjOUcJxUT02mTe5ZQ", "alias": "bristol-farms-south-pasadena", "name": "Bristol Farms", "image_url": "https://s3-media4.fl.yelpcdn.com/bphoto/qXOskp3x0Aw2qHChlnAD9g/o.jpg", "is_closed": false, "url": "https://www.yelp.com/biz/bristol-farms-south-pasadena?adjust_creative=y4osxHmnMD1pXQYRCP96Jg&utm_campaign=yelp_api_v3&utm_medium=api_v3_business_search&utm_source=y4osxHmnMD1pXQYRCP96Jg", "review_count": 312, "categories": [{"alias": "grocery", "title": "Grocery"}, {"alias": "gourmet", "title": "Specialty Food"}, {"alias": "beer_and_wine", "title": "Beer, Wine & Spirits"}], "rating": 3.5, "coordinates": {"latitude": 34.1184448793723, "longitude": -118.14988145881}, "transactions": [], "price": "$$", "location": {"address1": "606 Fair Oaks Ave", "address2": "", "address3": "", "city": "South Pasadena", "zip_code": "91030", "country": "US", "state": "CA", "display_address": ["606 Fair Oaks Ave", "South Pasadena, CA 91030"]}, "phone": "+16264415450", "display_phone": "(626) 441-5450", "distance": 263.5698274265006}, {"id": "NC3kz10K9k1ubwvVYYlGNw", "alias": "justin-hu-od-south-pasadena-eye-care-south-pasadena", "name": "Justin Hu, OD - South Pasadena Eye Care", "image_url": "https://s3-media1.fl.yelpcdn.com/bphoto/28HdXKVLljC4eM7o7yw8TA/o.jpg", "is_closed": false, "url": "https://www.yelp.com/biz/justin-hu-od-south-pasadena-eye-care-south-pasadena?adjust_creative=y4osxHmnMD1pXQYRCP96Jg&utm_campaign=yelp_api_v3&utm_medium=api_v3_business_search&utm_source=y4osxHmnMD1pXQYRCP96Jg", "review_count": 118, "categories": [{"alias": "optometrists", "title": "Optometrists"}, {"alias": "opticians", "title": "Eyewear & Opticians"}], "rating": 5.0, "coordinates": {"latitude": 34.11363, "longitude": -118.1505049}, "transactions": [], "price": "$$", "location": {"address1": "1103 Fair Oaks Ave", "address2": "", "address3": "", "city": "South Pasadena", "zip_code": "91030", "country": "US", "state": "CA", "display_address": ["1103 Fair Oaks Ave", "South Pasadena, CA 91030"]}, "phone": "+16264410770", "display_phone": "(626) 441-0770", "distance": 279.2858760731615}, {"id": "CB8G6WrXAx7mmcpCewMeKw", "alias": "ludwig-marketing-and-sales-south-pasadena", "name": "Ludwig Marketing & Sales", "image_url": "https://s3-media2.fl.yelpcdn.com/bphoto/unUahCNpgMgBpQjvrB-L4Q/o.jpg", "is_closed": false, "url": "https://www.yelp.com/biz/ludwig-marketing-and-sales-south-pasadena?adjust_creative=y4osxHmnMD1pXQYRCP96Jg&utm_campaign=yelp_api_v3&utm_medium=api_v3_business_search&utm_source=y4osxHmnMD1pXQYRCP96Jg", "review_count": 2, "categories": [{"alias": "marketing", "title": "Marketing"}], "rating": 5.0, "coordinates": {"latitude": 34.1184877, "longitude": -118.1488609}, "transactions": [], "location": {"address1": "628 1/2 Brent Ave", "address2": "", "address3": "", "city": "South Pasadena", "zip_code": "91030", "country": "US", "state": "CA", "display_address": ["628 1/2 Brent Ave", "South Pasadena, CA 91030"]}, "phone": "+16263990331", "display_phone": "(626) 399-0331", "distance": 296.7169989540272}, {"id": "5AdA-YfYF1Lf7rduckOX1A", "alias": "tahoe-pumpkin-patch-and-christmas-tree-lots-south-pasadena", "name": "Tahoe Pumpkin Patch & Christmas Tree Lots", "image_url": "https://s3-media4.fl.yelpcdn.com/bphoto/mYCuQfYt_CPTsDz0QzmR_g/o.jpg", "is_closed": false, "url": "https://www.yelp.com/biz/tahoe-pumpkin-patch-and-christmas-tree-lots-south-pasadena?adjust_creative=y4osxHmnMD1pXQYRCP96Jg&utm_campaign=yelp_api_v3&utm_medium=api_v3_business_search&utm_source=y4osxHmnMD1pXQYRCP96Jg", "review_count": 19, "categories": [{"alias": "christmastrees", "title": "Christmas Trees"}, {"alias": "pumpkinpatches", "title": "Pumpkin Patches"}], "rating": 3.5, "coordinates": {"latitude": 34.115468, "longitude": -118.153442}, "transactions": [], "price": "$$", "location": {"address1": "1141 Mission St", "address2": "", "address3": "", "city": "South Pasadena", "zip_code": "91030", "country": "US", "state": "CA", "display_address": ["1141 Mission St", "South Pasadena, CA 91030"]}, "phone": "+16262384463", "display_phone": "(626) 238-4463", "distance": 297.6633729217341}, {"id": "eyfq7I-Forz6R6QJPO9AWw", "alias": "magic-cleaners-and-laundry-south-pasadena", "name": "Magic Cleaners & Laundry", "image_url": "https://s3-media1.fl.yelpcdn.com/bphoto/OEc0rhmkXGo53GhLV7JiHg/o.jpg", "is_closed": false, "url": "https://www.yelp.com/biz/magic-cleaners-and-laundry-south-pasadena?adjust_creative=y4osxHmnMD1pXQYRCP96Jg&utm_campaign=yelp_api_v3&utm_medium=api_v3_business_search&utm_source=y4osxHmnMD1pXQYRCP96Jg", "review_count": 55, "categories": [{"alias": "shoerepair", "title": "Shoe Repair"}, {"alias": "sewingalterations", "title": "Sewing & Alterations"}, {"alias": "laundryservices", "title": "Laundry Services"}], "rating": 4.5, "coordinates": {"latitude": 34.11323, "longitude": -118.1505049}, "transactions": [], "price": "$$", "location": {"address1": "1113 Fair Oaks Ave", "address2": "", "address3": null, "city": "South Pasadena", "zip_code": "91030", "country": "US", "state": "CA", "display_address": ["1113 Fair Oaks Ave", "South Pasadena, CA 91030"]}, "phone": "+16267998185", "display_phone": "(626) 799-8185", "distance": 310.036570843923}, {"id": "1XY5uR1lSyYJcI3_oYtx5g", "alias": "grassroots-natural-market-and-kitchen-south-pasadena", "name": "Grassroots Natural Market & Kitchen", "image_url": "https://s3-media3.fl.yelpcdn.com/bphoto/Nnvbs2t_gINlrjowuNRGaw/o.jpg", "is_closed": false, "url": "https://www.yelp.com/biz/grassroots-natural-market-and-kitchen-south-pasadena?adjust_creative=y4osxHmnMD1pXQYRCP96Jg&utm_campaign=yelp_api_v3&utm_medium=api_v3_business_search&utm_source=y4osxHmnMD1pXQYRCP96Jg", "review_count": 377, "categories": [{"alias": "gourmet", "title": "Specialty Food"}, {"alias": "grocery", "title": "Grocery"}, {"alias": "juicebars", "title": "Juice Bars & Smoothies"}], "rating": 4.5, "coordinates": {"latitude": 34.113365, "longitude": -118.151411}, "transactions": ["pickup"], "price": "$$", "location": {"address1": "1119 Fair Oaks Ave", "address2": "", "address3": "", "city": "South Pasadena", "zip_code": "91030", "country": "US", "state": "CA", "display_address": ["1119 Fair Oaks Ave", "South Pasadena, CA 91030"]}, "phone": "+16267990156", "display_phone": "(626) 799-0156", "distance": 320.8559593734072}, {"id": "Jv-tAVa9AtJcSQO5fFJnDg", "alias": "pro-beauty-of-south-pasadena-south-pasadena", "name": "Pro Beauty of South Pasadena", "image_url": "https://s3-media3.fl.yelpcdn.com/bphoto/pe9CTaIfGbOBuDPYycu7QA/o.jpg", "is_closed": false, "url": "https://www.yelp.com/biz/pro-beauty-of-south-pasadena-south-pasadena?adjust_creative=y4osxHmnMD1pXQYRCP96Jg&utm_campaign=yelp_api_v3&utm_medium=api_v3_business_search&utm_source=y4osxHmnMD1pXQYRCP96Jg", "review_count": 31, "categories": [{"alias": "cosmetics", "title": "Cosmetics & Beauty Supply"}], "rating": 4.5, "coordinates": {"latitude": 34.1129551, "longitude": -118.1505049}, "transactions": [], "price": "$$", "location": {"address1": "1123 Fair Oaks Ave", "address2": "", "address3": "", "city": "South Pasadena", "zip_code": "91030", "country": "US", "state": "CA", "display_address": ["1123 Fair Oaks Ave", "South Pasadena, CA 91030"]}, "phone": "+16264417277", "display_phone": "(626) 441-7277", "distance": 331.5165616327819}, {"id": "xdiVNCsDsr6a9XRfJ7-cpw", "alias": "the-jireh-group-south-pasadena", "name": "The Jireh Group", "image_url": "https://s3-media1.fl.yelpcdn.com/bphoto/lKwPNIR7TRIK_qRX_z-pFA/o.jpg", "is_closed": false, "url": "https://www.yelp.com/biz/the-jireh-group-south-pasadena?adjust_creative=y4osxHmnMD1pXQYRCP96Jg&utm_campaign=yelp_api_v3&utm_medium=api_v3_business_search&utm_source=y4osxHmnMD1pXQYRCP96Jg", "review_count": 10, "categories": [{"alias": "propertymgmt", "title": "Property Management"}], "rating": 4.0, "coordinates": {"latitude": 34.1131285, "longitude": -118.1502351}, "transactions": [], "location": {"address1": "1116 Fair Oaks Ave", "address2": null, "address3": "", "city": "South Pasadena", "zip_code": "91030", "country": "US", "state": "CA", "display_address": ["1116 Fair Oaks Ave", "South Pasadena, CA 91030"]}, "phone": "+16263249448", "display_phone": "(626) 324-9448", "distance": 336.0202238112211}, {"id": "aQXgpOjYMaFl_SEVDzAOSQ", "alias": "us-post-office-south-pasadena", "name": "US Post Office", "image_url": "https://s3-media2.fl.yelpcdn.com/bphoto/PSgBfB1_5GLsSK_2COX7lw/o.jpg", "is_closed": false, "url": "https://www.yelp.com/biz/us-post-office-south-pasadena?adjust_creative=y4osxHmnMD1pXQYRCP96Jg&utm_campaign=yelp_api_v3&utm_medium=api_v3_business_search&utm_source=y4osxHmnMD1pXQYRCP96Jg", "review_count": 85, "categories": [{"alias": "postoffices", "title": "Post Offices"}, {"alias": "shipping_centers", "title": "Shipping Centers"}], "rating": 3.0, "coordinates": {"latitude": 34.1145975, "longitude": -118.1532449}, "transactions": [], "location": {"address1": "1001 Fremont Ave", "address2": "", "address3": "", "city": "South Pasadena", "zip_code": "91030", "country": "US", "state": "CA", "display_address": ["1001 Fremont Ave", "South Pasadena, CA 91030"]}, "phone": "+16267993024", "display_phone": "(626) 799-3024", "distance": 345.1889980954468}, {"id": "N8hsM-z2tGLgO43MX_S8YQ", "alias": "santa-fe-crafts-south-pasadena-5", "name": "Santa Fe Crafts", "image_url": "https://s3-media4.fl.yelpcdn.com/bphoto/rFx-KX4ac9QPVlZhb1AfuQ/o.jpg", "is_closed": false, "url": "https://www.yelp.com/biz/santa-fe-crafts-south-pasadena-5?adjust_creative=y4osxHmnMD1pXQYRCP96Jg&utm_campaign=yelp_api_v3&utm_medium=api_v3_business_search&utm_source=y4osxHmnMD1pXQYRCP96Jg", "review_count": 1, "categories": [{"alias": "jewelry", "title": "Jewelry"}, {"alias": "galleries", "title": "Art Galleries"}, {"alias": "artsandcrafts", "title": "Arts & Crafts"}], "rating": 1.0, "coordinates": {"latitude": 34.1156227, "longitude": -118.1541342}, "transactions": [], "location": {"address1": "1123 Mission St", "address2": null, "address3": null, "city": "South Pasadena", "zip_code": "91030", "country": "US", "state": "CA", "display_address": ["1123 Mission St", "South Pasadena, CA 91030"]}, "phone": "+16267993070", "display_phone": "(626) 799-3070", "distance": 356.93942194389996}, {"id": "t_4F3XJGNJ462NyQneS6uA", "alias": "mission-wines-south-pasadena", "name": "Mission Wines", "image_url": "https://s3-media3.fl.yelpcdn.com/bphoto/XYem_6mx5wk69taVGAsLRA/o.jpg", "is_closed": false, "url": "https://www.yelp.com/biz/mission-wines-south-pasadena?adjust_creative=y4osxHmnMD1pXQYRCP96Jg&utm_campaign=yelp_api_v3&utm_medium=api_v3_business_search&utm_source=y4osxHmnMD1pXQYRCP96Jg", "review_count": 62, "categories": [{"alias": "beer_and_wine", "title": "Beer, Wine & Spirits"}], "rating": 4.0, "coordinates": {"latitude": 34.11606, "longitude": -118.1544}, "transactions": [], "price": "$$", "location": {"address1": "1114 Mission St", "address2": "", "address3": "", "city": "South Pasadena", "zip_code": "91030", "country": "US", "state": "CA", "display_address": ["1114 Mission St", "South Pasadena, CA 91030"]}, "phone": "+16264039463", "display_phone": "(626) 403-9463", "distance": 374.08298466422025}, {"id": "3Vs9ER15XsvO7Zv-_YWGFQ", "alias": "vons-south-pasadena", "name": "Vons", "image_url": "https://s3-media1.fl.yelpcdn.com/bphoto/Mhpf4kMD8zf2hDwnEUl8Tg/o.jpg", "is_closed": false, "url": "https://www.yelp.com/biz/vons-south-pasadena?adjust_creative=y4osxHmnMD1pXQYRCP96Jg&utm_campaign=yelp_api_v3&utm_medium=api_v3_business_search&utm_source=y4osxHmnMD1pXQYRCP96Jg", "review_count": 87, "categories": [{"alias": "grocery", "title": "Grocery"}], "rating": 2.5, "coordinates": {"latitude": 34.112854, "longitude": -118.15146}, "transactions": [], "price": "$$", "location": {"address1": "1129 Fair Oaks Ave", "address2": "", "address3": "", "city": "South Pasadena", "zip_code": "91030", "country": "US", "state": "CA", "display_address": ["1129 Fair Oaks Ave", "South Pasadena, CA 91030"]}, "phone": "+16264413898", "display_phone": "(626) 441-3898", "distance": 376.40478235184355}, {"id": "5ZyABK1w-vd5_vYBTHvJZg", "alias": "fedex-office-print-and-ship-center-south-pasadena", "name": "FedEx Office Print & Ship Center", "image_url": "https://s3-media3.fl.yelpcdn.com/bphoto/9x-ssVvhByG4DCeZnwJt9A/o.jpg", "is_closed": false, "url": "https://www.yelp.com/biz/fedex-office-print-and-ship-center-south-pasadena?adjust_creative=y4osxHmnMD1pXQYRCP96Jg&utm_campaign=yelp_api_v3&utm_medium=api_v3_business_search&utm_source=y4osxHmnMD1pXQYRCP96Jg", "review_count": 125, "categories": [{"alias": "copyshops", "title": "Printing Services"}, {"alias": "shipping_centers", "title": "Shipping Centers"}, {"alias": "signmaking", "title": "Signmaking"}], "rating": 2.5, "coordinates": {"latitude": 34.11974, "longitude": -118.1497934}, "transactions": [], "location": {"address1": "460 Fair Oaks Ave", "address2": "", "address3": "", "city": "South Pasadena", "zip_code": "91030", "country": "US", "state": "CA", "display_address": ["460 Fair Oaks Ave", "South Pasadena, CA 91030"]}, "phone": "+16264036690", "display_phone": "(626) 403-6690", "distance": 407.42695200491596}, {"id": "88r77lUK4dq8JU_Mh9_mHw", "alias": "electric-car-charger-los-angeles-south-pasadena", "name": "Electric Car Charger Los Angeles", "image_url": "https://s3-media1.fl.yelpcdn.com/bphoto/XfkT9ZpBzbftHVHm4ZCmSg/o.jpg", "is_closed": false, "url": "https://www.yelp.com/biz/electric-car-charger-los-angeles-south-pasadena?adjust_creative=y4osxHmnMD1pXQYRCP96Jg&utm_campaign=yelp_api_v3&utm_medium=api_v3_business_search&utm_source=y4osxHmnMD1pXQYRCP96Jg", "review_count": 3, "categories": [{"alias": "autopartssupplies", "title": "Auto Parts & Supplies"}], "rating": 5.0, "coordinates": {"latitude": 34.11925, "longitude": -118.14767}, "transactions": [], "location": {"address1": "1728 Grevelia St", "address2": null, "address3": "", "city": "South Pasadena", "zip_code": "91030", "country": "US", "state": "CA", "display_address": ["1728 Grevelia St", "South Pasadena, CA 91030"]}, "phone": "+13238090178", "display_phone": "(323) 809-0178", "distance": 417.15138413801526}, {"id": "t2gN5J6xe4Hm-nxE0TjXbA", "alias": "u-s-bank-south-pasadena", "name": "U S Bank", "image_url": "https://s3-media3.fl.yelpcdn.com/bphoto/lZcAZFwPze9o0uHAJ8947A/o.jpg", "is_closed": false, "url": "https://www.yelp.com/biz/u-s-bank-south-pasadena?adjust_creative=y4osxHmnMD1pXQYRCP96Jg&utm_campaign=yelp_api_v3&utm_medium=api_v3_business_search&utm_source=y4osxHmnMD1pXQYRCP96Jg", "review_count": 7, "categories": [{"alias": "banks", "title": "Banks & Credit Unions"}], "rating": 2.0, "coordinates": {"latitude": 34.1124868, "longitude": -118.1505149}, "transactions": [], "location": {"address1": "1153 Fair Oaks Ave", "address2": null, "address3": null, "city": "South Pasadena", "zip_code": "91030", "country": "US", "state": "CA", "display_address": ["1153 Fair Oaks Ave", "South Pasadena, CA 91030"]}, "phone": "+16264037900", "display_phone": "(626) 403-7900", "distance": 420.8448155026971}, {"id": "vdcd7bsj37sxGWeHw6dYGw", "alias": "sees-candies-south-pasadena-4", "name": "See's Candies", "image_url": "https://s3-media4.fl.yelpcdn.com/bphoto/g5d9x5diC8TZqG5hyVDbLA/o.jpg", "is_closed": false, "url": "https://www.yelp.com/biz/sees-candies-south-pasadena-4?adjust_creative=y4osxHmnMD1pXQYRCP96Jg&utm_campaign=yelp_api_v3&utm_medium=api_v3_business_search&utm_source=y4osxHmnMD1pXQYRCP96Jg", "review_count": 16, "categories": [{"alias": "candy", "title": "Candy Stores"}, {"alias": "giftshops", "title": "Gift Shops"}, {"alias": "chocolate", "title": "Chocolatiers & Shops"}], "rating": 4.0, "coordinates": {"latitude": 34.119986, "longitude": -118.149836}, "transactions": [], "price": "$$", "location": {"address1": "464 Fair Oaks Ave", "address2": "", "address3": "", "city": "South Pasadena", "zip_code": "91030", "country": "US", "state": "CA", "display_address": ["464 Fair Oaks Ave", "South Pasadena, CA 91030"]}, "phone": "+16267992180", "display_phone": "(626) 799-2180", "distance": 434.2090586600136}, {"id": "NRndZUiFLNdM7XgYDpI1bQ", "alias": "howe-estate-sales-south-pasadena", "name": "Howe Estate Sales", "image_url": "https://s3-media3.fl.yelpcdn.com/bphoto/tTfUy-VIyH4s-zQMWln9wA/o.jpg", "is_closed": false, "url": "https://www.yelp.com/biz/howe-estate-sales-south-pasadena?adjust_creative=y4osxHmnMD1pXQYRCP96Jg&utm_campaign=yelp_api_v3&utm_medium=api_v3_business_search&utm_source=y4osxHmnMD1pXQYRCP96Jg", "review_count": 17, "categories": [{"alias": "estateliquidation", "title": "Estate Liquidation"}], "rating": 4.0, "coordinates": {"latitude": 34.12, "longitude": -118.15}, "transactions": [], "location": {"address1": "", "address2": "", "address3": "", "city": "South Pasadena", "zip_code": "91031", "country": "US", "state": "CA", "display_address": ["South Pasadena, CA 91031"]}, "phone": "+16267558950", "display_phone": "(626) 755-8950", "distance": 434.53821192117556}, {"id": "Z4SpYdwWpYmRFppAHoPrag", "alias": "pavilions-south-pasadena", "name": "Pavilions", "image_url": "https://s3-media3.fl.yelpcdn.com/bphoto/kYw5lRQsW6ReVuzn096y6A/o.jpg", "is_closed": false, "url": "https://www.yelp.com/biz/pavilions-south-pasadena?adjust_creative=y4osxHmnMD1pXQYRCP96Jg&utm_campaign=yelp_api_v3&utm_medium=api_v3_business_search&utm_source=y4osxHmnMD1pXQYRCP96Jg", "review_count": 86, "categories": [{"alias": "grocery", "title": "Grocery"}, {"alias": "pharmacy", "title": "Pharmacy"}], "rating": 3.0, "coordinates": {"latitude": 34.111571, "longitude": -118.151516}, "transactions": [], "price": "$$", "location": {"address1": "1213 S Fair Oaks Ave", "address2": "", "address3": "", "city": "South Pasadena", "zip_code": "91030", "country": "US", "state": "CA", "display_address": ["1213 S Fair Oaks Ave", "South Pasadena, CA 91030"]}, "phone": "+16267992261", "display_phone": "(626) 799-2261", "distance": 515.893560691018}, {"id": "PP7hwl3L4JEcxDREe5zTTw", "alias": "oculus-optometry-south-pasadena", "name": "Oculus Optometry", "image_url": "https://s3-media1.fl.yelpcdn.com/bphoto/Ewh4GdYbGXmTpysY6ZIoAA/o.jpg", "is_closed": false, "url": "https://www.yelp.com/biz/oculus-optometry-south-pasadena?adjust_creative=y4osxHmnMD1pXQYRCP96Jg&utm_campaign=yelp_api_v3&utm_medium=api_v3_business_search&utm_source=y4osxHmnMD1pXQYRCP96Jg", "review_count": 62, "categories": [{"alias": "opticians", "title": "Eyewear & Opticians"}, {"alias": "optometrists", "title": "Optometrists"}, {"alias": "laserlasikeyes", "title": "Laser Eye Surgery/Lasik"}], "rating": 5.0, "coordinates": {"latitude": 34.1158849, "longitude": -118.156028}, "transactions": [], "price": "$$", "location": {"address1": "1024 Mission St", "address2": "Ste B", "address3": "", "city": "South Pasadena", "zip_code": "91030", "country": "US", "state": "CA", "display_address": ["1024 Mission St", "Ste B", "South Pasadena, CA 91030"]}, "phone": "+16264606022", "display_phone": "(626) 460-6022", "distance": 518.8134275614143}, {"id": "JflvJ9cChq3mEaCYats_Lg", "alias": "boutique-jasleen-south-pasadena", "name": "Boutique Jasleen", "image_url": "https://s3-media2.fl.yelpcdn.com/bphoto/oOqmDtop_YxYU19quhrJEg/o.jpg", "is_closed": false, "url": "https://www.yelp.com/biz/boutique-jasleen-south-pasadena?adjust_creative=y4osxHmnMD1pXQYRCP96Jg&utm_campaign=yelp_api_v3&utm_medium=api_v3_business_search&utm_source=y4osxHmnMD1pXQYRCP96Jg", "review_count": 61, "categories": [{"alias": "womenscloth", "title": "Women's Clothing"}, {"alias": "accessories", "title": "Accessories"}], "rating": 4.5, "coordinates": {"latitude": 34.116146, "longitude": -118.156219}, "transactions": [], "price": "$$", "location": {"address1": "1020-A Mission St", "address2": null, "address3": "", "city": "South Pasadena", "zip_code": "91030", "country": "US", "state": "CA", "display_address": ["1020-A Mission St", "South Pasadena, CA 91030"]}, "phone": "+16264030300", "display_phone": "(626) 403-0300", "distance": 553.5837041739426}, {"id": "z4EOfk-_i7SM9fdKtFbqxw", "alias": "videotheque-south-pasadena", "name": "Videotheque", "image_url": "https://s3-media1.fl.yelpcdn.com/bphoto/cqCutVtvcKdiSj4w89tydw/o.jpg", "is_closed": false, "url": "https://www.yelp.com/biz/videotheque-south-pasadena?adjust_creative=y4osxHmnMD1pXQYRCP96Jg&utm_campaign=yelp_api_v3&utm_medium=api_v3_business_search&utm_source=y4osxHmnMD1pXQYRCP96Jg", "review_count": 139, "categories": [{"alias": "musicvideo", "title": "Music & DVDs"}, {"alias": "vinyl_records", "title": "Vinyl Records"}], "rating": 4.5, "coordinates": {"latitude": 34.116146, "longitude": -118.156219}, "transactions": [], "price": "$", "location": {"address1": "1020 Mission St", "address2": "Unit J", "address3": "", "city": "South Pasadena", "zip_code": "91030", "country": "US", "state": "CA", "display_address": ["1020 Mission St", "Unit J", "South Pasadena, CA 91030"]}, "phone": "+16264036621", "display_phone": "(626) 403-6621", "distance": 553.5837041739426}, {"id": "hAoCR0S10q7hvvltEGnzZQ", "alias": "the-red-shoes-south-pasadena", "name": "The Red Shoes", "image_url": "https://s3-media3.fl.yelpcdn.com/bphoto/Q-vHi-xEaEBmcqs1YdCpoQ/o.jpg", "is_closed": false, "url": "https://www.yelp.com/biz/the-red-shoes-south-pasadena?adjust_creative=y4osxHmnMD1pXQYRCP96Jg&utm_campaign=yelp_api_v3&utm_medium=api_v3_business_search&utm_source=y4osxHmnMD1pXQYRCP96Jg", "review_count": 48, "categories": [{"alias": "dancewear", "title": "Dance Wear"}], "rating": 4.0, "coordinates": {"latitude": 34.1158749, "longitude": -118.1564389}, "transactions": [], "price": "$$", "location": {"address1": "1018 Mission St", "address2": "Ste 1", "address3": "", "city": "South Pasadena", "zip_code": "91030", "country": "US", "state": "CA", "display_address": ["1018 Mission St", "Ste 1", "South Pasadena, CA 91030"]}, "phone": "+16267998615", "display_phone": "(626) 799-8615", "distance": 562.5867540854443}, {"id": "Z4SVwmaEtrua9TpL_YbwvA", "alias": "south-pasadena-rug-gallery-south-pasadena-2", "name": "South Pasadena Rug Gallery", "image_url": "", "is_closed": false, "url": "https://www.yelp.com/biz/south-pasadena-rug-gallery-south-pasadena-2?adjust_creative=y4osxHmnMD1pXQYRCP96Jg&utm_campaign=yelp_api_v3&utm_medium=api_v3_business_search&utm_source=y4osxHmnMD1pXQYRCP96Jg", "review_count": 1, "categories": [{"alias": "carpeting", "title": "Carpeting"}, {"alias": "rugs", "title": "Rugs"}], "rating": 5.0, "coordinates": {"latitude": 34.11602, "longitude": -118.15654}, "transactions": [], "location": {"address1": "1012 Mission St", "address2": "Ste A", "address3": "", "city": "South Pasadena", "zip_code": "91030", "country": "US", "state": "CA", "display_address": ["1012 Mission St", "Ste A", "South Pasadena, CA 91030"]}, "phone": "+16264608424", "display_phone": "(626) 460-8424", "distance": 575.2077348642902}, {"id": "rmlGXy3rT-XY4qv75TUd_A", "alias": "rosebuds-rosestuds-south-pasadena", "name": "Rosebuds Rosestuds", "image_url": "https://s3-media2.fl.yelpcdn.com/bphoto/zVYPwdFj5jax7OsuaDD0bQ/o.jpg", "is_closed": false, "url": "https://www.yelp.com/biz/rosebuds-rosestuds-south-pasadena?adjust_creative=y4osxHmnMD1pXQYRCP96Jg&utm_campaign=yelp_api_v3&utm_medium=api_v3_business_search&utm_source=y4osxHmnMD1pXQYRCP96Jg", "review_count": 57, "categories": [{"alias": "childcloth", "title": "Children's Clothing"}, {"alias": "toys", "title": "Toy Stores"}, {"alias": "vintage", "title": "Used, Vintage & Consignment"}], "rating": 4.5, "coordinates": {"latitude": 34.11602, "longitude": -118.15654}, "transactions": [], "price": "$", "location": {"address1": "1012 B Mission St", "address2": null, "address3": "", "city": "South Pasadena", "zip_code": "91030", "country": "US", "state": "CA", "display_address": ["1012 B Mission St", "South Pasadena, CA 91030"]}, "phone": "+16264037673", "display_phone": "(626) 403-7673", "distance": 575.2077348642902}, {"id": "79teK6sQSjmyLIjvZsaKEQ", "alias": "chase-bank-south-pasadena-2", "name": "Chase Bank", "image_url": "https://s3-media1.fl.yelpcdn.com/bphoto/4315tNS86XzUEsQ09SFMsA/o.jpg", "is_closed": false, "url": "https://www.yelp.com/biz/chase-bank-south-pasadena-2?adjust_creative=y4osxHmnMD1pXQYRCP96Jg&utm_campaign=yelp_api_v3&utm_medium=api_v3_business_search&utm_source=y4osxHmnMD1pXQYRCP96Jg", "review_count": 17, "categories": [{"alias": "banks", "title": "Banks & Credit Unions"}], "rating": 3.0, "coordinates": {"latitude": 34.11081, "longitude": -118.150853}, "transactions": [], "location": {"address1": "1305 Fair Oaks Ave", "address2": null, "address3": null, "city": "South Pasadena", "zip_code": "91030", "country": "US", "state": "CA", "display_address": ["1305 Fair Oaks Ave", "South Pasadena, CA 91030"]}, "phone": "+16264415151", "display_phone": "(626) 441-5151", "distance": 590.4195027772446}, {"id": "X_xNPoY-K5hFn_7Y9oAYmw", "alias": "sugarmynt-gallery-south-pasadena-2", "name": "SugarMynt Gallery", "image_url": "https://s3-media2.fl.yelpcdn.com/bphoto/gUoL73SWY-er4KPlUqXgDQ/o.jpg", "is_closed": false, "url": "https://www.yelp.com/biz/sugarmynt-gallery-south-pasadena-2?adjust_creative=y4osxHmnMD1pXQYRCP96Jg&utm_campaign=yelp_api_v3&utm_medium=api_v3_business_search&utm_source=y4osxHmnMD1pXQYRCP96Jg", "review_count": 21, "categories": [{"alias": "galleries", "title": "Art Galleries"}, {"alias": "paintandsip", "title": "Paint & Sip"}, {"alias": "venues", "title": "Venues & Event Spaces"}], "rating": 5.0, "coordinates": {"latitude": 34.11627, "longitude": -118.15684}, "transactions": [], "price": "$$", "location": {"address1": "810 Meridian Ave", "address2": "", "address3": "", "city": "South Pasadena", "zip_code": "91030", "country": "US", "state": "CA", "display_address": ["810 Meridian Ave", "South Pasadena, CA 91030"]}, "phone": "+16262227257", "display_phone": "(626) 222-7257", "distance": 604.4002197919688}, {"id": "vs25FhIsdOYNI6Zm2wyS5g", "alias": "dual-crossroads-south-pasadena", "name": "Dual Crossroads", "image_url": "https://s3-media1.fl.yelpcdn.com/bphoto/0x2cXStA84ynA8gT4-haDg/o.jpg", "is_closed": false, "url": "https://www.yelp.com/biz/dual-crossroads-south-pasadena?adjust_creative=y4osxHmnMD1pXQYRCP96Jg&utm_campaign=yelp_api_v3&utm_medium=api_v3_business_search&utm_source=y4osxHmnMD1pXQYRCP96Jg", "review_count": 45, "categories": [{"alias": "spiritual_shop", "title": "Spiritual Shop"}, {"alias": "giftshops", "title": "Gift Shops"}], "rating": 5.0, "coordinates": {"latitude": 34.1156051, "longitude": -118.15694}, "transactions": [], "price": "$$", "location": {"address1": "1005-B Mission St", "address2": null, "address3": "", "city": "South Pasadena", "zip_code": "91030", "country": "US", "state": "CA", "display_address": ["1005-B Mission St", "South Pasadena, CA 91030"]}, "phone": "+16263990795", "display_phone": "(626) 399-0795", "distance": 613.8548370070713}, {"id": "uVCGFb9EjTfPvZXfB0Rypg", "alias": "hodgsons-antiques-south-pasadena", "name": "Hodgson's Antiques", "image_url": "https://s3-media1.fl.yelpcdn.com/bphoto/7W8iR-3HsQ9UI3Sz-6xpjg/o.jpg", "is_closed": false, "url": "https://www.yelp.com/biz/hodgsons-antiques-south-pasadena?adjust_creative=y4osxHmnMD1pXQYRCP96Jg&utm_campaign=yelp_api_v3&utm_medium=api_v3_business_search&utm_source=y4osxHmnMD1pXQYRCP96Jg", "review_count": 31, "categories": [{"alias": "antiques", "title": "Antiques"}, {"alias": "vintage", "title": "Used, Vintage & Consignment"}], "rating": 4.5, "coordinates": {"latitude": 34.1156051, "longitude": -118.15694}, "transactions": [], "price": "$$", "location": {"address1": "1005 Mission St", "address2": "", "address3": "", "city": "South Pasadena", "zip_code": "91030", "country": "US", "state": "CA", "display_address": ["1005 Mission St", "South Pasadena, CA 91030"]}, "phone": "+16267990229", "display_phone": "(626) 799-0229", "distance": 613.8548370070713}, {"id": "WLYwy_ZARtU7Y-16MYi5sw", "alias": "action-towing-south-pasadena", "name": "Action Towing", "image_url": "https://s3-media3.fl.yelpcdn.com/bphoto/jyLBflOGWVwoQdP7yveycQ/o.jpg", "is_closed": false, "url": "https://www.yelp.com/biz/action-towing-south-pasadena?adjust_creative=y4osxHmnMD1pXQYRCP96Jg&utm_campaign=yelp_api_v3&utm_medium=api_v3_business_search&utm_source=y4osxHmnMD1pXQYRCP96Jg", "review_count": 38, "categories": [{"alias": "towing", "title": "Towing"}], "rating": 3.5, "coordinates": {"latitude": 34.110481, "longitude": -118.149856}, "transactions": [], "location": {"address1": "1312 Fair Oaks Ave", "address2": "", "address3": "", "city": "South Pasadena", "zip_code": "91030", "country": "US", "state": "CA", "display_address": ["1312 Fair Oaks Ave", "South Pasadena, CA 91030"]}, "phone": "+16264411863", "display_phone": "(626) 441-1863", "distance": 620.3289120019945}, {"id": "Th6yjmBd4w5zCv3rfgLoeQ", "alias": "south-pasadena-farmers-market-south-pasadena-2", "name": "South Pasadena Farmers' Market", "image_url": "https://s3-media4.fl.yelpcdn.com/bphoto/GiEwCplis9O63scWNyGYRQ/o.jpg", "is_closed": false, "url": "https://www.yelp.com/biz/south-pasadena-farmers-market-south-pasadena-2?adjust_creative=y4osxHmnMD1pXQYRCP96Jg&utm_campaign=yelp_api_v3&utm_medium=api_v3_business_search&utm_source=y4osxHmnMD1pXQYRCP96Jg", "review_count": 243, "categories": [{"alias": "farmersmarket", "title": "Farmers Market"}], "rating": 4.5, "coordinates": {"latitude": 34.1154873, "longitude": -118.1573307}, "transactions": [], "price": "$$", "location": {"address1": "905 Meridian Ave", "address2": "", "address3": "", "city": "South Pasadena", "zip_code": "91030", "country": "US", "state": "CA", "display_address": ["905 Meridian Ave", "South Pasadena, CA 91030"]}, "phone": "+16264032820", "display_phone": "(626) 403-2820", "distance": 625.3233724790867}, {"id": "7AQqzqT5wZMV15Ot5V3JCw", "alias": "hotbox-vintage-south-pasadena-2", "name": "Hotbox Vintage", "image_url": "https://s3-media4.fl.yelpcdn.com/bphoto/NqqzNtSk8UiVIQe3-IBRVw/o.jpg", "is_closed": false, "url": "https://www.yelp.com/biz/hotbox-vintage-south-pasadena-2?adjust_creative=y4osxHmnMD1pXQYRCP96Jg&utm_campaign=yelp_api_v3&utm_medium=api_v3_business_search&utm_source=y4osxHmnMD1pXQYRCP96Jg", "review_count": 23, "categories": [{"alias": "vintage", "title": "Used, Vintage & Consignment"}, {"alias": "menscloth", "title": "Men's Clothing"}, {"alias": "womenscloth", "title": "Women's Clothing"}], "rating": 4.5, "coordinates": {"latitude": 34.115762, "longitude": -118.157097}, "transactions": [], "price": "$$", "location": {"address1": "1127 Mission St", "address2": "", "address3": "", "city": "South Pasadena", "zip_code": "91030", "country": "US", "state": "CA", "display_address": ["1127 Mission St", "South Pasadena, CA 91030"]}, "phone": "+16263440244", "display_phone": "(626) 344-0244", "distance": 626.8504871599971}, {"id": "SMgN4Lu4VyBiQTNaYp19ww", "alias": "the-ivory-suite-bridal-boutique-south-pasadena", "name": "The Ivory Suite Bridal Boutique", "image_url": "https://s3-media1.fl.yelpcdn.com/bphoto/o4YZMER1-6LQfAYmsMYIzw/o.jpg", "is_closed": false, "url": "https://www.yelp.com/biz/the-ivory-suite-bridal-boutique-south-pasadena?adjust_creative=y4osxHmnMD1pXQYRCP96Jg&utm_campaign=yelp_api_v3&utm_medium=api_v3_business_search&utm_source=y4osxHmnMD1pXQYRCP96Jg", "review_count": 115, "categories": [{"alias": "bridal", "title": "Bridal"}], "rating": 4.5, "coordinates": {"latitude": 34.11615, "longitude": -118.15747}, "transactions": [], "price": "$$$", "location": {"address1": "803 Meridian Ave", "address2": "", "address3": "", "city": "South Pasadena", "zip_code": "91030", "country": "US", "state": "CA", "display_address": ["803 Meridian Ave", "South Pasadena, CA 91030"]}, "phone": "+16267992991", "display_phone": "(626) 799-2991", "distance": 652.7738104910835}, {"id": "8emwY0eo28NboyE57qAUcw", "alias": "barristers-nursery-and-garden-center-south-pasadena", "name": "Barristers Nursery & Garden Center", "image_url": "https://s3-media1.fl.yelpcdn.com/bphoto/qO2Leeq6k9EFdQyCyOdV0g/o.jpg", "is_closed": false, "url": "https://www.yelp.com/biz/barristers-nursery-and-garden-center-south-pasadena?adjust_creative=y4osxHmnMD1pXQYRCP96Jg&utm_campaign=yelp_api_v3&utm_medium=api_v3_business_search&utm_source=y4osxHmnMD1pXQYRCP96Jg", "review_count": 13, "categories": [{"alias": "gardening", "title": "Nurseries & Gardening"}], "rating": 3.0, "coordinates": {"latitude": 34.11499, "longitude": -118.1577}, "transactions": [], "price": "$$", "location": {"address1": "915 Meridian Ave", "address2": "", "address3": "", "city": "South Pasadena", "zip_code": "91030", "country": "US", "state": "CA", "display_address": ["915 Meridian Ave", "South Pasadena, CA 91030"]}, "phone": "+16264411323", "display_phone": "(626) 441-1323", "distance": 671.238778876006}, {"id": "DVbO1kyvxV-im3SwlffltQ", "alias": "nicoles-market-and-cafe-south-pasadena", "name": "Nicole's Market & Cafe", "image_url": "https://s3-media3.fl.yelpcdn.com/bphoto/kWG5H7AjMqb1mmCPF7NHxQ/o.jpg", "is_closed": false, "url": "https://www.yelp.com/biz/nicoles-market-and-cafe-south-pasadena?adjust_creative=y4osxHmnMD1pXQYRCP96Jg&utm_campaign=yelp_api_v3&utm_medium=api_v3_business_search&utm_source=y4osxHmnMD1pXQYRCP96Jg", "review_count": 291, "categories": [{"alias": "cheese", "title": "Cheese Shops"}, {"alias": "french", "title": "French"}, {"alias": "breakfast_brunch", "title": "Breakfast & Brunch"}], "rating": 4.0, "coordinates": {"latitude": 34.1148554131908, "longitude": -118.157764236194}, "transactions": [], "price": "$$", "location": {"address1": "921 Meridian Ave", "address2": "Unit B", "address3": "", "city": "South Pasadena", "zip_code": "91030", "country": "US", "state": "CA", "display_address": ["921 Meridian Ave", "Unit B", "South Pasadena, CA 91030"]}, "phone": "+16264035751", "display_phone": "(626) 403-5751", "distance": 700.9487732887507}, {"id": "zAUIiiV3LOWCY4qsLBvQig", "alias": "petal-south-pasadena", "name": "Petal", "image_url": "https://s3-media4.fl.yelpcdn.com/bphoto/xREVQ444hnFNYtsOkxYzRg/o.jpg", "is_closed": false, "url": "https://www.yelp.com/biz/petal-south-pasadena?adjust_creative=y4osxHmnMD1pXQYRCP96Jg&utm_campaign=yelp_api_v3&utm_medium=api_v3_business_search&utm_source=y4osxHmnMD1pXQYRCP96Jg", "review_count": 14, "categories": [{"alias": "florists", "title": "Florists"}], "rating": 4.5, "coordinates": {"latitude": 34.1121113843263, "longitude": -118.156278264487}, "transactions": [], "location": {"address1": "", "address2": null, "address3": "", "city": "South Pasadena", "zip_code": "91030", "country": "US", "state": "CA", "display_address": ["South Pasadena, CA 91030"]}, "phone": "+16264412669", "display_phone": "(626) 441-2669", "distance": 706.8263247621543}, {"id": "sQD1mxK2Kw52XdYtm45DNw", "alias": "mission-west-kitchen-and-bath-south-pasadena", "name": "Mission West Kitchen & Bath", "image_url": "https://s3-media1.fl.yelpcdn.com/bphoto/tN73xmb6mApgEuqHggEvaQ/o.jpg", "is_closed": false, "url": "https://www.yelp.com/biz/mission-west-kitchen-and-bath-south-pasadena?adjust_creative=y4osxHmnMD1pXQYRCP96Jg&utm_campaign=yelp_api_v3&utm_medium=api_v3_business_search&utm_source=y4osxHmnMD1pXQYRCP96Jg", "review_count": 13, "categories": [{"alias": "kitchenandbath", "title": "Kitchen & Bath"}], "rating": 4.5, "coordinates": {"latitude": 34.11542, "longitude": -118.15836}, "transactions": [], "price": "$$$", "location": {"address1": "905 Mission St", "address2": "", "address3": "", "city": "South Pasadena", "zip_code": "91030", "country": "US", "state": "CA", "display_address": ["905 Mission St", "South Pasadena, CA 91030"]}, "phone": "+16267993503", "display_phone": "(626) 799-3503", "distance": 744.3111114763002}, {"id": "NG8Xw8DUSIcaI-_KSD_30g", "alias": "mission-tile-west-south-pasadena", "name": "Mission Tile West", "image_url": "https://s3-media3.fl.yelpcdn.com/bphoto/lWOO1VNhtXESxhdqxQwrcw/o.jpg", "is_closed": false, "url": "https://www.yelp.com/biz/mission-tile-west-south-pasadena?adjust_creative=y4osxHmnMD1pXQYRCP96Jg&utm_campaign=yelp_api_v3&utm_medium=api_v3_business_search&utm_source=y4osxHmnMD1pXQYRCP96Jg", "review_count": 51, "categories": [{"alias": "contractors", "title": "Contractors"}, {"alias": "flooring", "title": "Flooring"}], "rating": 3.5, "coordinates": {"latitude": 34.115417, "longitude": -118.158645}, "transactions": [], "location": {"address1": "853 Mission St", "address2": "", "address3": "", "city": "South Pasadena", "zip_code": "91030", "country": "US", "state": "CA", "display_address": ["853 Mission St", "South Pasadena, CA 91030"]}, "phone": "+16267994595", "display_phone": "(626) 799-4595", "distance": 771.9759813668869}, {"id": "-uwckFeauXCqsbjgmyeIdw", "alias": "thistle-plumbing-south-pasadena-3", "name": "Thistle Plumbing", "image_url": "https://s3-media1.fl.yelpcdn.com/bphoto/r8NR8w0UUIt2uWrsSpFiCQ/o.jpg", "is_closed": false, "url": "https://www.yelp.com/biz/thistle-plumbing-south-pasadena-3?adjust_creative=y4osxHmnMD1pXQYRCP96Jg&utm_campaign=yelp_api_v3&utm_medium=api_v3_business_search&utm_source=y4osxHmnMD1pXQYRCP96Jg", "review_count": 63, "categories": [{"alias": "plumbing", "title": "Plumbing"}, {"alias": "hydrojetting", "title": "Hydro-jetting"}], "rating": 5.0, "coordinates": {"latitude": 34.1229, "longitude": -118.15195}, "transactions": [], "location": {"address1": "287 Grace Dr", "address2": null, "address3": null, "city": "South Pasadena", "zip_code": "91030", "country": "US", "state": "CA", "display_address": ["287 Grace Dr", "South Pasadena, CA 91030"]}, "phone": "+16266169353", "display_phone": "(626) 616-9353", "distance": 772.4694891385017}, {"id": "QnsEktQgDVM_NCzS7U3o7w", "alias": "mission-millworks-south-pasadena-2", "name": "Mission Millworks", "image_url": "https://s3-media1.fl.yelpcdn.com/bphoto/pjV8EqrQCWygmFSs4KbhRA/o.jpg", "is_closed": false, "url": "https://www.yelp.com/biz/mission-millworks-south-pasadena-2?adjust_creative=y4osxHmnMD1pXQYRCP96Jg&utm_campaign=yelp_api_v3&utm_medium=api_v3_business_search&utm_source=y4osxHmnMD1pXQYRCP96Jg", "review_count": 7, "categories": [{"alias": "windowsinstallation", "title": "Windows Installation"}, {"alias": "cabinetry", "title": "Cabinetry"}, {"alias": "doorsales", "title": "Door Sales/Installation"}], "rating": 3.0, "coordinates": {"latitude": 34.1155851, "longitude": -118.158918}, "transactions": [], "location": {"address1": "849 Mission St", "address2": "", "address3": "", "city": "South Pasadena", "zip_code": "91030", "country": "US", "state": "CA", "display_address": ["849 Mission St", "South Pasadena, CA 91030"]}, "phone": "+16264418509", "display_phone": "(626) 441-8509", "distance": 789.7760993829107}, {"id": "g8tjA0wZAMVjQ5uh4-G-gw", "alias": "rebekka-lien-real-estate-heaven-south-pasadena-ca", "name": "Rebekka Lien - Real Estate Heaven", "image_url": "https://s3-media1.fl.yelpcdn.com/bphoto/s8dphB8h_2qhOALlI_KnJA/o.jpg", "is_closed": false, "url": "https://www.yelp.com/biz/rebekka-lien-real-estate-heaven-south-pasadena-ca?adjust_creative=y4osxHmnMD1pXQYRCP96Jg&utm_campaign=yelp_api_v3&utm_medium=api_v3_business_search&utm_source=y4osxHmnMD1pXQYRCP96Jg", "review_count": 4, "categories": [{"alias": "realestateagents", "title": "Real Estate Agents"}], "rating": 5.0, "coordinates": {"latitude": 34.108235, "longitude": -118.150971}, "transactions": [], "location": {"address1": "1517 S Fair Oaks Ave", "address2": "Ste B", "address3": "", "city": "South Pasadena CA", "zip_code": "91030", "country": "US", "state": "CA", "display_address": ["1517 S Fair Oaks Ave", "Ste B", "South Pasadena CA, CA 91030"]}, "phone": "+16262303238", "display_phone": "(626) 230-3238", "distance": 876.7261377372093}, {"id": "ksyqhI_fFlkH4L2LiIOvMg", "alias": "abel-garfias-real-estate-heaven-south-pasadena-2", "name": "Abel Garfias - Real Estate Heaven", "image_url": "https://s3-media3.fl.yelpcdn.com/bphoto/wuJCO54f2dhRPfq0QaGJvw/o.jpg", "is_closed": false, "url": "https://www.yelp.com/biz/abel-garfias-real-estate-heaven-south-pasadena-2?adjust_creative=y4osxHmnMD1pXQYRCP96Jg&utm_campaign=yelp_api_v3&utm_medium=api_v3_business_search&utm_source=y4osxHmnMD1pXQYRCP96Jg", "review_count": 1, "categories": [{"alias": "realestateagents", "title": "Real Estate Agents"}], "rating": 5.0, "coordinates": {"latitude": 34.10821, "longitude": -118.15096}, "transactions": [], "location": {"address1": "1517 S Fair Oaks Ave", "address2": null, "address3": "", "city": "South Pasadena", "zip_code": "91030", "country": "US", "state": "CA", "display_address": ["1517 S Fair Oaks Ave", "South Pasadena, CA 91030"]}, "phone": "+13235248929", "display_phone": "(323) 524-8929", "distance": 883.8375188587098}, {"id": "kYBv0c0EU2MnjndyYMfZxQ", "alias": "talktopaul-south-pasadena-6", "name": "TalkToPaul", "image_url": "https://s3-media4.fl.yelpcdn.com/bphoto/DwB-RX2u03kd0hj-HFB5jA/o.jpg", "is_closed": false, "url": "https://www.yelp.com/biz/talktopaul-south-pasadena-6?adjust_creative=y4osxHmnMD1pXQYRCP96Jg&utm_campaign=yelp_api_v3&utm_medium=api_v3_business_search&utm_source=y4osxHmnMD1pXQYRCP96Jg", "review_count": 5, "categories": [{"alias": "realestateagents", "title": "Real Estate Agents"}], "rating": 4.0, "coordinates": {"latitude": 34.124068, "longitude": -118.150321}, "transactions": [], "location": {"address1": "1517 S Fair Oaks Ave", "address2": "Ste B", "address3": "", "city": "South Pasadena", "zip_code": "91030", "country": "US", "state": "CA", "display_address": ["1517 S Fair Oaks Ave", "Ste B", "South Pasadena, CA 91030"]}, "phone": "+18556547285", "display_phone": "(855) 654-7285", "distance": 886.0023017637345}, {"id": "a0lCzZP8gWBacXx6hhX4KQ", "alias": "arco-south-pasadena", "name": "Arco", "image_url": "https://s3-media1.fl.yelpcdn.com/bphoto/sp06E23dOL3oP5uYH_8_JQ/o.jpg", "is_closed": false, "url": "https://www.yelp.com/biz/arco-south-pasadena?adjust_creative=y4osxHmnMD1pXQYRCP96Jg&utm_campaign=yelp_api_v3&utm_medium=api_v3_business_search&utm_source=y4osxHmnMD1pXQYRCP96Jg", "review_count": 27, "categories": [{"alias": "servicestations", "title": "Gas Stations"}], "rating": 3.5, "coordinates": {"latitude": 34.1160844509245, "longitude": -118.160868901779}, "transactions": [], "location": {"address1": "736 Mission St", "address2": "", "address3": "", "city": "South Pasadena", "zip_code": "91030", "country": "US", "state": "CA", "display_address": ["736 Mission St", "South Pasadena, CA 91030"]}, "phone": "+13236823301", "display_phone": "(323) 682-3301", "distance": 972.9587106186095}, {"id": "7P8tDViMTjzDK-LuT-1jfw", "alias": "husco-german-auto-service-south-pasadena", "name": "Husco German Auto Service", "image_url": "https://s3-media2.fl.yelpcdn.com/bphoto/I-9IjVw5p-3dTLoSXsA4XA/o.jpg", "is_closed": false, "url": "https://www.yelp.com/biz/husco-german-auto-service-south-pasadena?adjust_creative=y4osxHmnMD1pXQYRCP96Jg&utm_campaign=yelp_api_v3&utm_medium=api_v3_business_search&utm_source=y4osxHmnMD1pXQYRCP96Jg", "review_count": 27, "categories": [{"alias": "autorepair", "title": "Auto Repair"}, {"alias": "carwindowtinting", "title": "Car Window Tinting"}], "rating": 3.5, "coordinates": {"latitude": 34.1155751, "longitude": -118.1616292}, "transactions": [], "location": {"address1": "719 Mission St", "address2": "", "address3": "", "city": "South Pasadena", "zip_code": "91030", "country": "US", "state": "CA", "display_address": ["719 Mission St", "South Pasadena, CA 91030"]}, "phone": "+16267994176", "display_phone": "(626) 799-4176", "distance": 1058.1621490459293}, {"id": "8-kWCkNdQ0vFXn6usLyEXg", "alias": "halvorsons-cleaners-south-pasadena", "name": "Halvorson's Cleaners", "image_url": "https://s3-media2.fl.yelpcdn.com/bphoto/KS2-ZupPIftOs_yH52jDhw/o.jpg", "is_closed": false, "url": "https://www.yelp.com/biz/halvorsons-cleaners-south-pasadena?adjust_creative=y4osxHmnMD1pXQYRCP96Jg&utm_campaign=yelp_api_v3&utm_medium=api_v3_business_search&utm_source=y4osxHmnMD1pXQYRCP96Jg", "review_count": 30, "categories": [{"alias": "laundryservices", "title": "Laundry Services"}], "rating": 3.5, "coordinates": {"latitude": 34.1153907775879, "longitude": -118.162254333496}, "transactions": [], "price": "$$", "location": {"address1": "701 Mission St", "address2": "", "address3": "", "city": "South Pasadena", "zip_code": "91030", "country": "US", "state": "CA", "display_address": ["701 Mission St", "South Pasadena, CA 91030"]}, "phone": "+16267991510", "display_phone": "(626) 799-1510", "distance": 1104.51516398368}, {"id": "zPa7UtrcA1nKbMdqD-qT-w", "alias": "trader-joes-south-pasadena-3", "name": "Trader Joe's", "image_url": "https://s3-media1.fl.yelpcdn.com/bphoto/oyHOQ1_twhn-7dVy258SSw/o.jpg", "is_closed": false, "url": "https://www.yelp.com/biz/trader-joes-south-pasadena-3?adjust_creative=y4osxHmnMD1pXQYRCP96Jg&utm_campaign=yelp_api_v3&utm_medium=api_v3_business_search&utm_source=y4osxHmnMD1pXQYRCP96Jg", "review_count": 216, "categories": [{"alias": "grocery", "title": "Grocery"}], "rating": 3.5, "coordinates": {"latitude": 34.11538, "longitude": -118.16291}, "transactions": [], "price": "$$", "location": {"address1": "613 Mission St", "address2": "", "address3": "", "city": "South Pasadena", "zip_code": "91030", "country": "US", "state": "CA", "display_address": ["613 Mission St", "South Pasadena, CA 91030"]}, "phone": "+16264416263", "display_phone": "(626) 441-6263", "distance": 1170.0163117063587}, {"id": "fficWjF_AbXSCrnVHBu6HQ", "alias": "spotted-hen-catering-los-angeles", "name": "Spotted Hen Catering", "image_url": "https://s3-media2.fl.yelpcdn.com/bphoto/PBBiFvY-z0z5i0xZ0aMmow/o.jpg", "is_closed": false, "url": "https://www.yelp.com/biz/spotted-hen-catering-los-angeles?adjust_creative=y4osxHmnMD1pXQYRCP96Jg&utm_campaign=yelp_api_v3&utm_medium=api_v3_business_search&utm_source=y4osxHmnMD1pXQYRCP96Jg", "review_count": 17, "categories": [{"alias": "catering", "title": "Caterers"}, {"alias": "bakeries", "title": "Bakeries"}, {"alias": "cookingclasses", "title": "Cooking Classes"}], "rating": 5.0, "coordinates": {"latitude": 34.11216, "longitude": -118.15807}, "transactions": [], "location": {"address1": "", "address2": "", "address3": null, "city": "Los Angeles", "zip_code": "91030", "country": "US", "state": "CA", "display_address": ["Los Angeles, CA 91030"]}, "phone": "+13232550800", "display_phone": "(323) 255-0800", "distance": 1173.6036978041047}, {"id": "zbZHHvTOiXKLvTO4Bu52ng", "alias": "tlc-pet-medical-center-south-pasadena", "name": "TLC Pet Medical Center", "image_url": "https://s3-media4.fl.yelpcdn.com/bphoto/rRZaa-kIiTqTkVe5debHrQ/o.jpg", "is_closed": false, "url": "https://www.yelp.com/biz/tlc-pet-medical-center-south-pasadena?adjust_creative=y4osxHmnMD1pXQYRCP96Jg&utm_campaign=yelp_api_v3&utm_medium=api_v3_business_search&utm_source=y4osxHmnMD1pXQYRCP96Jg", "review_count": 313, "categories": [{"alias": "vet", "title": "Veterinarians"}], "rating": 3.0, "coordinates": {"latitude": 34.1043945, "longitude": -118.1516922}, "transactions": [], "location": {"address1": "1412 Huntington Dr", "address2": "", "address3": "", "city": "South Pasadena", "zip_code": "91030", "country": "US", "state": "CA", "display_address": ["1412 Huntington Dr", "South Pasadena, CA 91030"]}, "phone": "+16264418555", "display_phone": "(626) 441-8555", "distance": 1292.487413968059}, {"id": "q8OSl-GdjhFf8Qx9aVxNtw", "alias": "t-mobile-south-pasadena-2", "name": "T-Mobile", "image_url": "https://s3-media2.fl.yelpcdn.com/bphoto/mPOt4sxAMTQcPbnSnIYyKg/o.jpg", "is_closed": false, "url": "https://www.yelp.com/biz/t-mobile-south-pasadena-2?adjust_creative=y4osxHmnMD1pXQYRCP96Jg&utm_campaign=yelp_api_v3&utm_medium=api_v3_business_search&utm_source=y4osxHmnMD1pXQYRCP96Jg", "review_count": 61, "categories": [{"alias": "mobilephones", "title": "Mobile Phones"}], "rating": 2.5, "coordinates": {"latitude": 34.1041545659735, "longitude": -118.152939900756}, "transactions": [], "price": "$$", "location": {"address1": "1318 Huntington Dr", "address2": "Ste B", "address3": null, "city": "South Pasadena", "zip_code": "91030", "country": "US", "state": "CA", "display_address": ["1318 Huntington Dr", "Ste B", "South Pasadena, CA 91030"]}, "phone": "+13232562789", "display_phone": "(323) 256-2789", "distance": 1350.3226688578218}, {"id": "WPTf708QQS9sMQ1x2unCQA", "alias": "mike-wu-curbperfect-real-estate-team-south-pasadena", "name": "Mike Wu - CurbPerfect Real Estate Team", "image_url": "https://s3-media2.fl.yelpcdn.com/bphoto/T4X5hFIBpsVY2l2ZbQrTrA/o.jpg", "is_closed": false, "url": "https://www.yelp.com/biz/mike-wu-curbperfect-real-estate-team-south-pasadena?adjust_creative=y4osxHmnMD1pXQYRCP96Jg&utm_campaign=yelp_api_v3&utm_medium=api_v3_business_search&utm_source=y4osxHmnMD1pXQYRCP96Jg", "review_count": 4, "categories": [{"alias": "realestateagents", "title": "Real Estate Agents"}, {"alias": "propertymgmt", "title": "Property Management"}], "rating": 5.0, "coordinates": {"latitude": 34.10368, "longitude": -118.15046}, "transactions": [], "location": {"address1": "1499 Huntington Dr", "address2": "", "address3": "Keller Williams Realty", "city": "South Pasadena", "zip_code": "91030", "country": "US", "state": "CA", "display_address": ["1499 Huntington Dr", "Keller Williams Realty", "South Pasadena, CA 91030"]}, "phone": "+13109898788", "display_phone": "(310) 989-8788", "distance": 1366.0937773092744}, {"id": "5224d04SY3RVW3upt3TrWw", "alias": "reda-beebe-dilbeck-real-estate-real-living-south-pasadena", "name": "Reda Beebe - Dilbeck Real Estate/Real Living", "image_url": "https://s3-media2.fl.yelpcdn.com/bphoto/w9vkdvcKBy0E2nT7uJIXsw/o.jpg", "is_closed": false, "url": "https://www.yelp.com/biz/reda-beebe-dilbeck-real-estate-real-living-south-pasadena?adjust_creative=y4osxHmnMD1pXQYRCP96Jg&utm_campaign=yelp_api_v3&utm_medium=api_v3_business_search&utm_source=y4osxHmnMD1pXQYRCP96Jg", "review_count": 1, "categories": [{"alias": "realestatesvcs", "title": "Real Estate Services"}, {"alias": "commercialrealestate", "title": "Commercial Real Estate"}], "rating": 5.0, "coordinates": {"latitude": 34.103683, "longitude": -118.150467}, "transactions": [], "location": {"address1": "1499 Huntington Dr", "address2": null, "address3": "", "city": "South Pasadena", "zip_code": "91030", "country": "US", "state": "CA", "display_address": ["1499 Huntington Dr", "South Pasadena, CA 91030"]}, "phone": "+13233949008", "display_phone": "(323) 394-9008", "distance": 1366.0937773092744}, {"id": "YQe_1OcA4Apk7eHU_n5Gow", "alias": "fatboy-marketing-company-south-pasadena", "name": "Fatboy Marketing Company", "image_url": "https://s3-media3.fl.yelpcdn.com/bphoto/fGHeNuWkWtWUjlgJOUW2qg/o.jpg", "is_closed": false, "url": "https://www.yelp.com/biz/fatboy-marketing-company-south-pasadena?adjust_creative=y4osxHmnMD1pXQYRCP96Jg&utm_campaign=yelp_api_v3&utm_medium=api_v3_business_search&utm_source=y4osxHmnMD1pXQYRCP96Jg", "review_count": 2, "categories": [{"alias": "advertising", "title": "Advertising"}, {"alias": "web_design", "title": "Web Design"}, {"alias": "marketing", "title": "Marketing"}], "rating": 4.5, "coordinates": {"latitude": 34.1039451, "longitude": -118.1510851}, "transactions": [], "location": {"address1": "1441 Huntington Dr", "address2": "Ste 141", "address3": "", "city": "South Pasadena", "zip_code": "91030", "country": "US", "state": "CA", "display_address": ["1441 Huntington Dr", "Ste 141", "South Pasadena, CA 91030"]}, "phone": "+18004549024", "display_phone": "(800) 454-9024", "distance": 1366.0940433837727}, {"id": "FeF5SAoWc7InQIVfomsWuw", "alias": "ash-hammad-curb-perfect-south-pasadena-5", "name": "Ash Hammad -  Curb Perfect", "image_url": "https://s3-media1.fl.yelpcdn.com/bphoto/WsgMbiIpmYf0cnF7ve1pig/o.jpg", "is_closed": false, "url": "https://www.yelp.com/biz/ash-hammad-curb-perfect-south-pasadena-5?adjust_creative=y4osxHmnMD1pXQYRCP96Jg&utm_campaign=yelp_api_v3&utm_medium=api_v3_business_search&utm_source=y4osxHmnMD1pXQYRCP96Jg", "review_count": 9, "categories": [{"alias": "realestateagents", "title": "Real Estate Agents"}], "rating": 5.0, "coordinates": {"latitude": 34.1038034, "longitude": -118.1505311}, "transactions": [], "location": {"address1": "1499 Huntington Dr", "address2": "Ste 500", "address3": "", "city": "South Pasadena", "zip_code": "91030", "country": "US", "state": "CA", "display_address": ["1499 Huntington Dr", "Ste 500", "South Pasadena, CA 91030"]}, "phone": "+18889972872", "display_phone": "(888) 997-2872", "distance": 1367.4835439615135}, {"id": "VwInLKcdhV9ws9mykJbi6A", "alias": "big-lots-south-pasadena-3", "name": "Big Lots", "image_url": "https://s3-media2.fl.yelpcdn.com/bphoto/4tlUlry6RvJCKB2H2CTesA/o.jpg", "is_closed": false, "url": "https://www.yelp.com/biz/big-lots-south-pasadena-3?adjust_creative=y4osxHmnMD1pXQYRCP96Jg&utm_campaign=yelp_api_v3&utm_medium=api_v3_business_search&utm_source=y4osxHmnMD1pXQYRCP96Jg", "review_count": 51, "categories": [{"alias": "deptstores", "title": "Department Stores"}], "rating": 3.0, "coordinates": {"latitude": 34.10363, "longitude": -118.15181}, "transactions": [], "price": "$$", "location": {"address1": "1401 Huntington Dr", "address2": "Ste A", "address3": "", "city": "South Pasadena", "zip_code": "91030", "country": "US", "state": "CA", "display_address": ["1401 Huntington Dr", "Ste A", "South Pasadena, CA 91030"]}, "phone": "+16264415493", "display_phone": "(626) 441-5493", "distance": 1394.5686129690296}, {"id": "hZT5w6_cNV5LwgsFUORbWA", "alias": "starbase-net-computer-south-pasadena", "name": "Starbase Net Computer", "image_url": "https://s3-media2.fl.yelpcdn.com/bphoto/qyyjnK96mEYlrm7rIj4V2w/o.jpg", "is_closed": false, "url": "https://www.yelp.com/biz/starbase-net-computer-south-pasadena?adjust_creative=y4osxHmnMD1pXQYRCP96Jg&utm_campaign=yelp_api_v3&utm_medium=api_v3_business_search&utm_source=y4osxHmnMD1pXQYRCP96Jg", "review_count": 25, "categories": [{"alias": "itservices", "title": "IT Services & Computer Repair"}, {"alias": "computers", "title": "Computers"}], "rating": 4.0, "coordinates": {"latitude": 34.1037108, "longitude": -118.1527768}, "transactions": [], "price": "$$", "location": {"address1": "1323 Huntington Dr", "address2": "", "address3": "", "city": "South Pasadena", "zip_code": "91030", "country": "US", "state": "CA", "display_address": ["1323 Huntington Dr", "South Pasadena, CA 91030"]}, "phone": "+13232543186", "display_phone": "(323) 254-3186", "distance": 1403.1890982889165}, {"id": "Ds1TTCbEtU91FSRE2fiNdQ", "alias": "ted-a-moreno-c-ht-los-angeles-2", "name": "Ted A Moreno, C.Ht", "image_url": "https://s3-media1.fl.yelpcdn.com/bphoto/ypXdXUn-hmUhfcPZbIAQug/o.jpg", "is_closed": false, "url": "https://www.yelp.com/biz/ted-a-moreno-c-ht-los-angeles-2?adjust_creative=y4osxHmnMD1pXQYRCP96Jg&utm_campaign=yelp_api_v3&utm_medium=api_v3_business_search&utm_source=y4osxHmnMD1pXQYRCP96Jg", "review_count": 6, "categories": [{"alias": "lifecoach", "title": "Life Coach"}, {"alias": "hypnosis", "title": "Hypnosis/Hypnotherapy"}], "rating": 5.0, "coordinates": {"latitude": 34.1046104, "longitude": -118.1437302}, "transactions": [], "location": {"address1": "1910 Huntington Dr", "address2": "Ste 9", "address3": "", "city": "Los Angeles", "zip_code": "91030", "country": "US", "state": "CA", "display_address": ["1910 Huntington Dr", "Ste 9", "Los Angeles, CA 91030"]}, "phone": "+16268260612", "display_phone": "(626) 826-0612", "distance": 1404.8915566697428}, {"id": "ev4XSCUsXYjVgOWvZUEmSQ", "alias": "underground-skate-supply-south-pasadena", "name": "Underground Skate Supply", "image_url": "https://s3-media2.fl.yelpcdn.com/bphoto/vT-SjwjcDAuLvNDGDjjjcg/o.jpg", "is_closed": false, "url": "https://www.yelp.com/biz/underground-skate-supply-south-pasadena?adjust_creative=y4osxHmnMD1pXQYRCP96Jg&utm_campaign=yelp_api_v3&utm_medium=api_v3_business_search&utm_source=y4osxHmnMD1pXQYRCP96Jg", "review_count": 7, "categories": [{"alias": "skateshops", "title": "Skate Shops"}], "rating": 5.0, "coordinates": {"latitude": 34.1034871876112, "longitude": -118.152528046865}, "transactions": [], "price": "$", "location": {"address1": "1905 Fremont Ave", "address2": "Ste 2", "address3": null, "city": "South Pasadena", "zip_code": "91030", "country": "US", "state": "CA", "display_address": ["1905 Fremont Ave", "Ste 2", "South Pasadena, CA 91030"]}, "phone": "+13239997447", "display_phone": "(323) 999-7447", "distance": 1417.4006228828573}, {"id": "maZfJOcySViHm2_I5x2ttQ", "alias": "nancy-galarza-the-divine-real-estate-group-south-pasadena-3", "name": "Nancy Galarza - The Divine Real Estate Group", "image_url": "https://s3-media1.fl.yelpcdn.com/bphoto/2F_LSKx2SSgyasC9dBlzwg/o.jpg", "is_closed": false, "url": "https://www.yelp.com/biz/nancy-galarza-the-divine-real-estate-group-south-pasadena-3?adjust_creative=y4osxHmnMD1pXQYRCP96Jg&utm_campaign=yelp_api_v3&utm_medium=api_v3_business_search&utm_source=y4osxHmnMD1pXQYRCP96Jg", "review_count": 2, "categories": [{"alias": "realestateagents", "title": "Real Estate Agents"}], "rating": 3.0, "coordinates": {"latitude": 34.11187, "longitude": -118.1658}, "transactions": [], "location": {"address1": "406 Monterey Rd", "address2": "", "address3": "", "city": "South Pasadena", "zip_code": "91030", "country": "US", "state": "CA", "display_address": ["406 Monterey Rd", "South Pasadena, CA 91030"]}, "phone": "+15626528523", "display_phone": "(562) 652-8523", "distance": 1502.272901576501}, {"id": "e0j-8m99cITuk33793_6kw", "alias": "sam-andress-huntington-group-south-pasadena-3", "name": "Sam Andress - Huntington Group", "image_url": "https://s3-media1.fl.yelpcdn.com/bphoto/rlABxEchlJN60AVqckrwaA/o.jpg", "is_closed": false, "url": "https://www.yelp.com/biz/sam-andress-huntington-group-south-pasadena-3?adjust_creative=y4osxHmnMD1pXQYRCP96Jg&utm_campaign=yelp_api_v3&utm_medium=api_v3_business_search&utm_source=y4osxHmnMD1pXQYRCP96Jg", "review_count": 6, "categories": [{"alias": "realestateagents", "title": "Real Estate Agents"}], "rating": 5.0, "coordinates": {"latitude": 34.1123155, "longitude": -118.168975}, "transactions": [], "location": {"address1": "305 Pasadena Ave", "address2": null, "address3": "", "city": "South Pasadena", "zip_code": "91030", "country": "US", "state": "CA", "display_address": ["305 Pasadena Ave", "South Pasadena, CA 91030"]}, "phone": "+16264197793", "display_phone": "(626) 419-7793", "distance": 1753.3749181474925}, {"id": "n_FYUEkIXvahExYgNhCJvw", "alias": "ralphs-south-pasadena", "name": "Ralphs", "image_url": "https://s3-media2.fl.yelpcdn.com/bphoto/qUeuS95YHtVR5Hi_nrjI-w/o.jpg", "is_closed": false, "url": "https://www.yelp.com/biz/ralphs-south-pasadena?adjust_creative=y4osxHmnMD1pXQYRCP96Jg&utm_campaign=yelp_api_v3&utm_medium=api_v3_business_search&utm_source=y4osxHmnMD1pXQYRCP96Jg", "review_count": 103, "categories": [{"alias": "grocery", "title": "Grocery"}, {"alias": "drugstores", "title": "Drugstores"}, {"alias": "beer_and_wine", "title": "Beer, Wine & Spirits"}], "rating": 3.5, "coordinates": {"latitude": 34.1050380255641, "longitude": -118.135301694274}, "transactions": [], "price": "$$", "location": {"address1": "1745 Garfield Ave", "address2": "", "address3": "", "city": "South Pasadena", "zip_code": "91031", "country": "US", "state": "CA", "display_address": ["1745 Garfield Ave", "South Pasadena, CA 91031"]}, "phone": "+16264030082", "display_phone": "(626) 403-0082", "distance": 1849.222661673322}, {"id": "qZGr-8Xcw0E4RyoSOXP9dw", "alias": "bank-of-the-west-south-pasadena", "name": "Bank of the West", "image_url": "https://s3-media1.fl.yelpcdn.com/bphoto/3NkSAAhqgPG_VonVx9IpGA/o.jpg", "is_closed": false, "url": "https://www.yelp.com/biz/bank-of-the-west-south-pasadena?adjust_creative=y4osxHmnMD1pXQYRCP96Jg&utm_campaign=yelp_api_v3&utm_medium=api_v3_business_search&utm_source=y4osxHmnMD1pXQYRCP96Jg", "review_count": 14, "categories": [{"alias": "banks", "title": "Banks & Credit Unions"}], "rating": 3.5, "coordinates": {"latitude": 34.10429, "longitude": -118.13506}, "transactions": [], "location": {"address1": "1833 Atlantic Blvd", "address2": "", "address3": "", "city": "South Pasadena", "zip_code": "91030", "country": "US", "state": "CA", "display_address": ["1833 Atlantic Blvd", "South Pasadena, CA 91030"]}, "phone": "+16267999522", "display_phone": "(626) 799-9522", "distance": 1924.7637669665028}, {"id": "miJa1lFo9B9JBjqjTzCGGQ", "alias": "trececielos-south-pasadena", "name": "TreceCielos", "image_url": "https://s3-media3.fl.yelpcdn.com/bphoto/5iRv456JIY3k29uD_HRz5w/o.jpg", "is_closed": false, "url": "https://www.yelp.com/biz/trececielos-south-pasadena?adjust_creative=y4osxHmnMD1pXQYRCP96Jg&utm_campaign=yelp_api_v3&utm_medium=api_v3_business_search&utm_source=y4osxHmnMD1pXQYRCP96Jg", "review_count": 12, "categories": [{"alias": "copyshops", "title": "Printing Services"}, {"alias": "screen_printing_tshirt_printing", "title": "Screen Printing/T-Shirt Printing"}, {"alias": "custommerchandise", "title": "Customized Merchandise"}], "rating": 5.0, "coordinates": {"latitude": 34.1110683, "longitude": -118.1716703}, "transactions": [], "price": "$", "location": {"address1": "220 Monterey Rd", "address2": null, "address3": "", "city": "South Pasadena", "zip_code": "91030", "country": "US", "state": "CA", "display_address": ["220 Monterey Rd", "South Pasadena, CA 91030"]}, "phone": "+18189155473", "display_phone": "(818) 915-5473", "distance": 2054.5378851044893}, {"id": "hK9YwuKZUuPWACxwKAPI9Q", "alias": "equity-smart-home-loans-south-pasadena-4", "name": "Equity Smart Home Loans", "image_url": "https://s3-media2.fl.yelpcdn.com/bphoto/U6ny-GV3cDipA_3RGHBm-Q/o.jpg", "is_closed": false, "url": "https://www.yelp.com/biz/equity-smart-home-loans-south-pasadena-4?adjust_creative=y4osxHmnMD1pXQYRCP96Jg&utm_campaign=yelp_api_v3&utm_medium=api_v3_business_search&utm_source=y4osxHmnMD1pXQYRCP96Jg", "review_count": 32, "categories": [{"alias": "mortgagebrokers", "title": "Mortgage Brokers"}], "rating": 5.0, "coordinates": {"latitude": 34.1113892111548, "longitude": -118.174717643073}, "transactions": [], "location": {"address1": "1010 Sycamore Ave", "address2": "Ste 106", "address3": "", "city": "South Pasadena", "zip_code": "91030", "country": "US", "state": "CA", "display_address": ["1010 Sycamore Ave", "Ste 106", "South Pasadena, CA 91030"]}, "phone": "+13232584317", "display_phone": "(323) 258-4317", "distance": 2308.137550669007}]