[{"id": "iK5RE6wXOZ5PmJMQab0Ohg", "alias": "independent-electric-south-pasadena", "name": "Independent Electric", "image_url": "https://s3-media2.fl.yelpcdn.com/bphoto/7YgWvOAjFK0KQY1P3QQ9_A/o.jpg", "is_closed": false, "url": "https://www.yelp.com/biz/independent-electric-south-pasadena?adjust_creative=y4osxHmnMD1pXQYRCP96Jg&utm_campaign=yelp_api_v3&utm_medium=api_v3_business_search&utm_source=y4osxHmnMD1pXQYRCP96Jg", "review_count": 27, "categories": [{"alias": "electricians", "title": "Electricians"}], "rating": 5.0, "coordinates": {"latitude": 34.1121113843263, "longitude": -118.156278264487}, "transactions": [], "location": {"address1": "", "address2": null, "address3": "", "city": "South Pasadena", "zip_code": "91030", "country": "US", "state": "CA", "display_address": ["South Pasadena, CA 91030"]}, "phone": "+16263776153", "display_phone": "(626) 377-6153", "distance": 4.993195600113268}, {"id": "BrIlXq2EYwEyLrI4Nm2_IQ", "alias": "jessica-colp-life-coach-south-pasadena", "name": "Jessica Colp, Life Coach", "image_url": "https://s3-media3.fl.yelpcdn.com/bphoto/g7mc59d0byN0Nh7BLpuxwQ/o.jpg", "is_closed": false, "url": "https://www.yelp.com/biz/jessica-colp-life-coach-south-pasadena?adjust_creative=y4osxHmnMD1pXQYRCP96Jg&utm_campaign=yelp_api_v3&utm_medium=api_v3_business_search&utm_source=y4osxHmnMD1pXQYRCP96Jg", "review_count": 28, "categories": [{"alias": "lifecoach", "title": "Life Coach"}], "rating": 5.0, "coordinates": {"latitude": 34.11216, "longitude": -118.15807}, "transactions": [], "location": {"address1": "", "address2": "", "address3": "", "city": "South Pasadena", "zip_code": "91030", "country": "US", "state": "CA", "display_address": ["South Pasadena, CA 91030"]}, "phone": "+16263909600", "display_phone": "(626) 390-9600", "distance": 4.993195600113268}, {"id": "jnTUirMQq2tqMrshW-XdDQ", "alias": "sicara-design-south-pasadena", "name": "Sicara Design", "image_url": "https://s3-media1.fl.yelpcdn.com/bphoto/1Kxv8Xz83TMvny0YlO9mjg/o.jpg", "is_closed": false, "url": "https://www.yelp.com/biz/sicara-design-south-pasadena?adjust_creative=y4osxHmnMD1pXQYRCP96Jg&utm_campaign=yelp_api_v3&utm_medium=api_v3_business_search&utm_source=y4osxHmnMD1pXQYRCP96Jg", "review_count": 5, "categories": [{"alias": "homestaging", "title": "Home Staging"}, {"alias": "interiordesign", "title": "Interior Design"}], "rating": 4.0, "coordinates": {"latitude": 34.1173782348633, "longitude": -118.150833129883}, "transactions": [], "location": {"address1": null, "address2": null, "address3": "", "city": "South Pasadena", "zip_code": "91030", "country": "US", "state": "CA", "display_address": ["South Pasadena, CA 91030"]}, "phone": "+15105200677", "display_phone": "(510) 520-0677", "distance": 4.993195600113268}, {"id": "YYOVyJssggwqV3iM1G7T0A", "alias": "pike-construction-south-pasadena", "name": "Pike Construction", "image_url": "", "is_closed": false, "url": "https://www.yelp.com/biz/pike-construction-south-pasadena?adjust_creative=y4osxHmnMD1pXQYRCP96Jg&utm_campaign=yelp_api_v3&utm_medium=api_v3_business_search&utm_source=y4osxHmnMD1pXQYRCP96Jg", "review_count": 3, "categories": [{"alias": "contractors", "title": "Contractors"}], "rating": 3.5, "coordinates": {"latitude": 34.11738, "longitude": -118.15083}, "transactions": [], "location": {"address1": "", "address2": "", "address3": "", "city": "South Pasadena", "zip_code": "91030", "country": "US", "state": "CA", "display_address": ["South Pasadena, CA 91030"]}, "phone": "+16268649305", "display_phone": "(626) 864-9305", "distance": 4.993195600113268}, {"id": "0CwyIHvSA0l5I-cRn31FVA", "alias": "marc-ellis-trusted-real-estate-advsior-south-pasadena", "name": "Marc Ellis - Trusted Real Estate Advsior", "image_url": "https://s3-media3.fl.yelpcdn.com/bphoto/QYzaDElzXnNostixLb3WmA/o.jpg", "is_closed": false, "url": "https://www.yelp.com/biz/marc-ellis-trusted-real-estate-advsior-south-pasadena?adjust_creative=y4osxHmnMD1pXQYRCP96Jg&utm_campaign=yelp_api_v3&utm_medium=api_v3_business_search&utm_source=y4osxHmnMD1pXQYRCP96Jg", "review_count": 7, "categories": [{"alias": "realestateagents", "title": "Real Estate Agents"}], "rating": 4.5, "coordinates": {"latitude": 34.1163128, "longitude": -118.1500862}, "transactions": [], "location": {"address1": "812 Fair Oaks Ave", "address2": "", "address3": "", "city": "South Pasadena", "zip_code": "91030", "country": "US", "state": "CA", "display_address": ["812 Fair Oaks Ave", "South Pasadena, CA 91030"]}, "phone": "+16263186844", "display_phone": "(626) 318-6844", "distance": 30.77802004248578}, {"id": "NcaxVZYClL1vsRGIIsAl4A", "alias": "reimagine-your-home-south-pasadena", "name": "Reimagine Your Home", "image_url": "https://s3-media2.fl.yelpcdn.com/bphoto/Mghy-VekvwodH3z8F0VROQ/o.jpg", "is_closed": false, "url": "https://www.yelp.com/biz/reimagine-your-home-south-pasadena?adjust_creative=y4osxHmnMD1pXQYRCP96Jg&utm_campaign=yelp_api_v3&utm_medium=api_v3_business_search&utm_source=y4osxHmnMD1pXQYRCP96Jg", "review_count": 15, "categories": [{"alias": "flooring", "title": "Flooring"}, {"alias": "blinds", "title": "Shades & Blinds"}, {"alias": "carpeting", "title": "Carpeting"}], "rating": 4.0, "coordinates": {"latitude": 34.1161329, "longitude": -118.1508968}, "transactions": [], "location": {"address1": "1518 Mission St", "address2": null, "address3": null, "city": "South Pasadena", "zip_code": "91030", "country": "US", "state": "CA", "display_address": ["1518 Mission St", "South Pasadena, CA 91030"]}, "phone": "+16267993656", "display_phone": "(626) 799-3656", "distance": 55.06215588278632}, {"id": "wUCfh1Vj1-atudv9B_bSuw", "alias": "speers-tv-south-pasadena", "name": "Speers TV", "image_url": "https://s3-media3.fl.yelpcdn.com/bphoto/hlLi82Cn2phy2R9OA9BbnQ/o.jpg", "is_closed": false, "url": "https://www.yelp.com/biz/speers-tv-south-pasadena?adjust_creative=y4osxHmnMD1pXQYRCP96Jg&utm_campaign=yelp_api_v3&utm_medium=api_v3_business_search&utm_source=y4osxHmnMD1pXQYRCP96Jg", "review_count": 43, "categories": [{"alias": "electronics", "title": "Electronics"}, {"alias": "electronicsrepair", "title": "Electronics Repair"}, {"alias": "hometheatreinstallation", "title": "Home Theatre Installation"}], "rating": 5.0, "coordinates": {"latitude": 34.11531, "longitude": -118.15076}, "transactions": [], "price": "$$", "location": {"address1": "919 Fair Oaks Ave", "address2": "", "address3": "", "city": "South Pasadena", "zip_code": "91030", "country": "US", "state": "CA", "display_address": ["919 Fair Oaks Ave", "South Pasadena, CA 91030"]}, "phone": "+16267993639", "display_phone": "(626) 799-3639", "distance": 93.89250411343035}, {"id": "AwplQyJ45sfwfFb8llIWrA", "alias": "nott-and-associates-south-pasadena-2", "name": "Nott & Associates", "image_url": "https://s3-media3.fl.yelpcdn.com/bphoto/7VdpNFlNi2CaEep32JzSLQ/o.jpg", "is_closed": false, "url": "https://www.yelp.com/biz/nott-and-associates-south-pasadena-2?adjust_creative=y4osxHmnMD1pXQYRCP96Jg&utm_campaign=yelp_api_v3&utm_medium=api_v3_business_search&utm_source=y4osxHmnMD1pXQYRCP96Jg", "review_count": 13, "categories": [{"alias": "architects", "title": "Architects"}, {"alias": "contractors", "title": "Contractors"}], "rating": 4.5, "coordinates": {"latitude": 34.115969, "longitude": -118.151324}, "transactions": [], "location": {"address1": "1508 Mission St", "address2": null, "address3": "", "city": "South Pasadena", "zip_code": "91030", "country": "US", "state": "CA", "display_address": ["1508 Mission St", "South Pasadena, CA 91030"]}, "phone": "+16264606172", "display_phone": "(626) 460-6172", "distance": 95.3867499510254}, {"id": "0gD9C8ElI72EgMKg-qB0QQ", "alias": "aquino-and-loew-south-pasadena", "name": "Aquino & Loew", "image_url": "https://s3-media4.fl.yelpcdn.com/bphoto/p_5hR7aaqNhBHWQQGW_CZQ/o.jpg", "is_closed": false, "url": "https://www.yelp.com/biz/aquino-and-loew-south-pasadena?adjust_creative=y4osxHmnMD1pXQYRCP96Jg&utm_campaign=yelp_api_v3&utm_medium=api_v3_business_search&utm_source=y4osxHmnMD1pXQYRCP96Jg", "review_count": 12, "categories": [{"alias": "immigrationlawyers", "title": "Immigration Law"}], "rating": 4.5, "coordinates": {"latitude": 34.11816, "longitude": -118.15104}, "transactions": [], "location": {"address1": "625 Fair Oaks Ave", "address2": "Ste 101", "address3": "", "city": "South Pasadena", "zip_code": "91030", "country": "US", "state": "CA", "display_address": ["625 Fair Oaks Ave", "Ste 101", "South Pasadena, CA 91030"]}, "phone": "+18887971140", "display_phone": "(888) 797-1140", "distance": 236.82282708192292}, {"id": "_0R9d8ELnZES4lPmOT1EAw", "alias": "manibog-law-south-pasadena", "name": "Manibog Law", "image_url": "https://s3-media3.fl.yelpcdn.com/bphoto/mthbVk1LPBmkthtFxEZrqw/o.jpg", "is_closed": false, "url": "https://www.yelp.com/biz/manibog-law-south-pasadena?adjust_creative=y4osxHmnMD1pXQYRCP96Jg&utm_campaign=yelp_api_v3&utm_medium=api_v3_business_search&utm_source=y4osxHmnMD1pXQYRCP96Jg", "review_count": 125, "categories": [{"alias": "personal_injury", "title": "Personal Injury Law"}, {"alias": "general_litigation", "title": "General Litigation"}, {"alias": "medicallaw", "title": "Medical Law"}], "rating": 5.0, "coordinates": {"latitude": 34.11816, "longitude": -118.15104}, "transactions": [], "location": {"address1": "625 Fair Oaks Ave", "address2": "Ste 101", "address3": "", "city": "South Pasadena", "zip_code": "91030", "country": "US", "state": "CA", "display_address": ["625 Fair Oaks Ave", "Ste 101", "South Pasadena, CA 91030"]}, "phone": "+16265775444", "display_phone": "(626) 577-5444", "distance": 236.82282708192292}, {"id": "lAAuiDv47dF3Aa_mFCHZEA", "alias": "law-offices-of-paul-yee-south-pasadena-2", "name": "Law Offices of Paul Yee", "image_url": "https://s3-media2.fl.yelpcdn.com/bphoto/vqqGfOYzlnIkVb45vCMJ8g/o.jpg", "is_closed": false, "url": "https://www.yelp.com/biz/law-offices-of-paul-yee-south-pasadena-2?adjust_creative=y4osxHmnMD1pXQYRCP96Jg&utm_campaign=yelp_api_v3&utm_medium=api_v3_business_search&utm_source=y4osxHmnMD1pXQYRCP96Jg", "review_count": 4, "categories": [{"alias": "businesslawyers", "title": "Business Law"}, {"alias": "estateplanning", "title": "Estate Planning Law"}, {"alias": "iplaw", "title": "IP & Internet Law"}], "rating": 5.0, "coordinates": {"latitude": 34.1155856, "longitude": -118.1528614}, "transactions": [], "location": {"address1": "1401 Mission St", "address2": "Ste C1", "address3": "", "city": "South Pasadena", "zip_code": "91030", "country": "US", "state": "CA", "display_address": ["1401 Mission St", "Ste C1", "South Pasadena, CA 91030"]}, "phone": "+16267994900", "display_phone": "(626) 799-4900", "distance": 242.63759012494023}, {"id": "yDQtO8vlOJxCmAHhffbP1g", "alias": "davina-kotulski-phd-south-pasadena-4", "name": "Davina Kotulski, PhD", "image_url": "https://s3-media1.fl.yelpcdn.com/bphoto/-XpyYPRqBHcg9LANlrlJhQ/o.jpg", "is_closed": false, "url": "https://www.yelp.com/biz/davina-kotulski-phd-south-pasadena-4?adjust_creative=y4osxHmnMD1pXQYRCP96Jg&utm_campaign=yelp_api_v3&utm_medium=api_v3_business_search&utm_source=y4osxHmnMD1pXQYRCP96Jg", "review_count": 11, "categories": [{"alias": "lifecoach", "title": "Life Coach"}, {"alias": "c_and_mh", "title": "Counseling & Mental Health"}], "rating": 5.0, "coordinates": {"latitude": 34.1145352, "longitude": -118.1528166}, "transactions": [], "location": {"address1": "1000 Fremont Ave", "address2": "Second Floor", "address3": "", "city": "South Pasadena", "zip_code": "91030", "country": "US", "state": "CA", "display_address": ["1000 Fremont Ave", "Second Floor", "South Pasadena, CA 91030"]}, "phone": "+16262004375", "display_phone": "(626) 200-4375", "distance": 289.7398618111194}, {"id": "AmVGV0QFbHOD9IJSbvFSug", "alias": "law-offices-of-kenneth-s-li-south-pasadena", "name": "Law Offices of Kenneth S Li", "image_url": "", "is_closed": false, "url": "https://www.yelp.com/biz/law-offices-of-kenneth-s-li-south-pasadena?adjust_creative=y4osxHmnMD1pXQYRCP96Jg&utm_campaign=yelp_api_v3&utm_medium=api_v3_business_search&utm_source=y4osxHmnMD1pXQYRCP96Jg", "review_count": 1, "categories": [{"alias": "lawyers", "title": "Lawyers"}], "rating": 2.0, "coordinates": {"latitude": 34.116611, "longitude": -118.153381}, "transactions": [], "location": {"address1": "803 Fremont Ave", "address2": "", "address3": "", "city": "South Pasadena", "zip_code": "91030", "country": "US", "state": "CA", "display_address": ["803 Fremont Ave", "South Pasadena, CA 91030"]}, "phone": "+16262812474", "display_phone": "(626) 281-2474", "distance": 289.9752529722735}, {"id": "CB8G6WrXAx7mmcpCewMeKw", "alias": "ludwig-marketing-and-sales-south-pasadena", "name": "Ludwig Marketing & Sales", "image_url": "https://s3-media2.fl.yelpcdn.com/bphoto/unUahCNpgMgBpQjvrB-L4Q/o.jpg", "is_closed": false, "url": "https://www.yelp.com/biz/ludwig-marketing-and-sales-south-pasadena?adjust_creative=y4osxHmnMD1pXQYRCP96Jg&utm_campaign=yelp_api_v3&utm_medium=api_v3_business_search&utm_source=y4osxHmnMD1pXQYRCP96Jg", "review_count": 2, "categories": [{"alias": "marketing", "title": "Marketing"}], "rating": 5.0, "coordinates": {"latitude": 34.1184877, "longitude": -118.1488609}, "transactions": [], "location": {"address1": "628 1/2 Brent Ave", "address2": "", "address3": "", "city": "South Pasadena", "zip_code": "91030", "country": "US", "state": "CA", "display_address": ["628 1/2 Brent Ave", "South Pasadena, CA 91030"]}, "phone": "+16263990331", "display_phone": "(626) 399-0331", "distance": 296.7169989540272}, {"id": "n4Xet65fsyCnafayy1Ab5w", "alias": "jeannette-a-martello-md-south-pasadena", "name": "Jeannette A Martello, MD", "image_url": "", "is_closed": false, "url": "https://www.yelp.com/biz/jeannette-a-martello-md-south-pasadena?adjust_creative=y4osxHmnMD1pXQYRCP96Jg&utm_campaign=yelp_api_v3&utm_medium=api_v3_business_search&utm_source=y4osxHmnMD1pXQYRCP96Jg", "review_count": 3, "categories": [{"alias": "cosmeticsurgeons", "title": "Cosmetic Surgeons"}], "rating": 1.0, "coordinates": {"latitude": 34.1176528930664, "longitude": -118.153442382812}, "transactions": [], "location": {"address1": "701 Fremont Ave", "address2": "", "address3": "", "city": "South Pasadena", "zip_code": "91030", "country": "US", "state": "CA", "display_address": ["701 Fremont Ave", "South Pasadena, CA 91030"]}, "phone": "+16264031747", "display_phone": "(626) 403-1747", "distance": 337.9825493755631}, {"id": "5guxbP84ba4vWfRASOUQ_Q", "alias": "the-beautx-laser-and-skin-care-south-pasadena-2", "name": "The Beautx Laser & Skin Care", "image_url": "https://s3-media2.fl.yelpcdn.com/bphoto/TwpUhuOnewKk2F-I_7lI_w/o.jpg", "is_closed": false, "url": "https://www.yelp.com/biz/the-beautx-laser-and-skin-care-south-pasadena-2?adjust_creative=y4osxHmnMD1pXQYRCP96Jg&utm_campaign=yelp_api_v3&utm_medium=api_v3_business_search&utm_source=y4osxHmnMD1pXQYRCP96Jg", "review_count": 3, "categories": [{"alias": "skincare", "title": "Skin Care"}, {"alias": "laser_hair_removal", "title": "Laser Hair Removal"}, {"alias": "tattooremoval", "title": "Tattoo Removal"}], "rating": 5.0, "coordinates": {"latitude": 34.1127, "longitude": -118.15015}, "transactions": [], "location": {"address1": "1132 Fair Oaks Ave", "address2": null, "address3": "", "city": "South Pasadena", "zip_code": "91030", "country": "US", "state": "CA", "display_address": ["1132 Fair Oaks Ave", "South Pasadena, CA 91030"]}, "phone": "+16267871133", "display_phone": "(626) 787-1133", "distance": 377.12273933023124}, {"id": "dO3oijdkRiQOrEf7Mqht2A", "alias": "david-j-seto-m-d-wu-wei-osteopathy-and-acupuncture-south-pasadena", "name": "David J. Seto, M.D. - Wu-Wei Osteopathy & Acupuncture", "image_url": "https://s3-media2.fl.yelpcdn.com/bphoto/63Bz5BHpmERvn2BfLBO1Og/o.jpg", "is_closed": false, "url": "https://www.yelp.com/biz/david-j-seto-m-d-wu-wei-osteopathy-and-acupuncture-south-pasadena?adjust_creative=y4osxHmnMD1pXQYRCP96Jg&utm_campaign=yelp_api_v3&utm_medium=api_v3_business_search&utm_source=y4osxHmnMD1pXQYRCP96Jg", "review_count": 3, "categories": [{"alias": "osteopathicphysicians", "title": "Osteopathic Physicians"}, {"alias": "acupuncture", "title": "Acupuncture"}, {"alias": "tcm", "title": "Traditional Chinese Medicine"}], "rating": 5.0, "coordinates": {"latitude": 34.1133, "longitude": -118.15272}, "transactions": [], "location": {"address1": "1108 Fremont Ave", "address2": null, "address3": "", "city": "South Pasadena", "zip_code": "91030", "country": "US", "state": "CA", "display_address": ["1108 Fremont Ave", "South Pasadena, CA 91030"]}, "phone": "+16267881639", "display_phone": "(626) 788-1639", "distance": 385.0256855821466}, {"id": "kPOT2TBTy68l39zwWUip_w", "alias": "cynthia-bennett-and-associates-south-pasadena", "name": "Cynthia Bennett & Associates", "image_url": "https://s3-media1.fl.yelpcdn.com/bphoto/H78skr-kNJDJR2_3Kb4plQ/o.jpg", "is_closed": false, "url": "https://www.yelp.com/biz/cynthia-bennett-and-associates-south-pasadena?adjust_creative=y4osxHmnMD1pXQYRCP96Jg&utm_campaign=yelp_api_v3&utm_medium=api_v3_business_search&utm_source=y4osxHmnMD1pXQYRCP96Jg", "review_count": 4, "categories": [{"alias": "contractors", "title": "Contractors"}, {"alias": "interiordesign", "title": "Interior Design"}], "rating": 3.0, "coordinates": {"latitude": 34.11995, "longitude": -118.1507}, "transactions": [], "location": {"address1": "501 Fair Oaks Ave", "address2": "", "address3": "", "city": "South Pasadena", "zip_code": "91030", "country": "US", "state": "CA", "display_address": ["501 Fair Oaks Ave", "South Pasadena, CA 91030"]}, "phone": "+16267999701", "display_phone": "(626) 799-9701", "distance": 431.3841477658205}, {"id": "e8RvHGwCq_U3tDUSWIdizA", "alias": "rejuvayou-medical-spas-south-pasadena", "name": "RejuvaYou Medical Spas", "image_url": "https://s3-media1.fl.yelpcdn.com/bphoto/SJLJxJcgcyZfK1xx-OxYzQ/o.jpg", "is_closed": false, "url": "https://www.yelp.com/biz/rejuvayou-medical-spas-south-pasadena?adjust_creative=y4osxHmnMD1pXQYRCP96Jg&utm_campaign=yelp_api_v3&utm_medium=api_v3_business_search&utm_source=y4osxHmnMD1pXQYRCP96Jg", "review_count": 249, "categories": [{"alias": "skincare", "title": "Skin Care"}, {"alias": "medicalspa", "title": "Medical Spas"}, {"alias": "cosmeticsurgeons", "title": "Cosmetic Surgeons"}], "rating": 4.5, "coordinates": {"latitude": 34.1158849, "longitude": -118.156028}, "transactions": [], "price": "$$", "location": {"address1": "1024 Mission St", "address2": "Ste A", "address3": "", "city": "South Pasadena", "zip_code": "91030", "country": "US", "state": "CA", "display_address": ["1024 Mission St", "Ste A", "South Pasadena, CA 91030"]}, "phone": "+16264145580", "display_phone": "(626) 414-5580", "distance": 518.8134275614143}, {"id": "ZXnI1Cs9_VqyU1CWZCu8Ng", "alias": "boortz-steven-l-law-offices-of-south-pasadena", "name": "Boortz Steven L Law Offices of", "image_url": "", "is_closed": false, "url": "https://www.yelp.com/biz/boortz-steven-l-law-offices-of-south-pasadena?adjust_creative=y4osxHmnMD1pXQYRCP96Jg&utm_campaign=yelp_api_v3&utm_medium=api_v3_business_search&utm_source=y4osxHmnMD1pXQYRCP96Jg", "review_count": 3, "categories": [{"alias": "divorce", "title": "Divorce & Family Law"}, {"alias": "businesslawyers", "title": "Business Law"}, {"alias": "realestatelawyers", "title": "Real Estate Law"}], "rating": 5.0, "coordinates": {"latitude": 34.11446, "longitude": -118.15644}, "transactions": [], "location": {"address1": "1003 Diamond Ave", "address2": "Ste 204", "address3": "", "city": "South Pasadena", "zip_code": "91030", "country": "US", "state": "CA", "display_address": ["1003 Diamond Ave", "Ste 204", "South Pasadena, CA 91030"]}, "phone": "+16264411038", "display_phone": "(626) 441-1038", "distance": 593.698214416197}, {"id": "LVMhQFEPf1MJO03SKwL9gQ", "alias": "ryan-painting-services-south-pasadena", "name": "Ryan Painting Services", "image_url": "https://s3-media3.fl.yelpcdn.com/bphoto/qlY8gKUvHpiWCyMPvQSTqA/o.jpg", "is_closed": false, "url": "https://www.yelp.com/biz/ryan-painting-services-south-pasadena?adjust_creative=y4osxHmnMD1pXQYRCP96Jg&utm_campaign=yelp_api_v3&utm_medium=api_v3_business_search&utm_source=y4osxHmnMD1pXQYRCP96Jg", "review_count": 7, "categories": [{"alias": "painters", "title": "Painters"}], "rating": 5.0, "coordinates": {"latitude": 34.109998, "longitude": -118.150434}, "transactions": [], "location": {"address1": "1506 Bank St", "address2": "", "address3": "", "city": "South Pasadena", "zip_code": "91030", "country": "US", "state": "CA", "display_address": ["1506 Bank St", "South Pasadena, CA 91030"]}, "phone": "+16267992672", "display_phone": "(626) 799-2672", "distance": 678.6228260907002}, {"id": "uVd1JMj7CTyMQtHUmoM0RQ", "alias": "new-life-acupuncture-and-herb-center-south-pasadena", "name": "New Life Acupuncture & Herb Center", "image_url": "https://s3-media3.fl.yelpcdn.com/bphoto/8LMWWNwbsy68PX_KeWeXIg/o.jpg", "is_closed": false, "url": "https://www.yelp.com/biz/new-life-acupuncture-and-herb-center-south-pasadena?adjust_creative=y4osxHmnMD1pXQYRCP96Jg&utm_campaign=yelp_api_v3&utm_medium=api_v3_business_search&utm_source=y4osxHmnMD1pXQYRCP96Jg", "review_count": 47, "categories": [{"alias": "acupuncture", "title": "Acupuncture"}, {"alias": "tcm", "title": "Traditional Chinese Medicine"}, {"alias": "fertility", "title": "Fertility"}], "rating": 5.0, "coordinates": {"latitude": 34.1097486, "longitude": -118.1499311}, "transactions": [], "location": {"address1": "1414 Fair Oaks Ave", "address2": "Unit 1A", "address3": "", "city": "South Pasadena", "zip_code": "91030", "country": "US", "state": "CA", "display_address": ["1414 Fair Oaks Ave", "Unit 1A", "South Pasadena, CA 91030"]}, "phone": "+16263401489", "display_phone": "(626) 340-1489", "distance": 707.0587726439472}, {"id": "NG8Xw8DUSIcaI-_KSD_30g", "alias": "mission-tile-west-south-pasadena", "name": "Mission Tile West", "image_url": "https://s3-media3.fl.yelpcdn.com/bphoto/lWOO1VNhtXESxhdqxQwrcw/o.jpg", "is_closed": false, "url": "https://www.yelp.com/biz/mission-tile-west-south-pasadena?adjust_creative=y4osxHmnMD1pXQYRCP96Jg&utm_campaign=yelp_api_v3&utm_medium=api_v3_business_search&utm_source=y4osxHmnMD1pXQYRCP96Jg", "review_count": 51, "categories": [{"alias": "contractors", "title": "Contractors"}, {"alias": "flooring", "title": "Flooring"}], "rating": 3.5, "coordinates": {"latitude": 34.115417, "longitude": -118.158645}, "transactions": [], "location": {"address1": "853 Mission St", "address2": "", "address3": "", "city": "South Pasadena", "zip_code": "91030", "country": "US", "state": "CA", "display_address": ["853 Mission St", "South Pasadena, CA 91030"]}, "phone": "+16267994595", "display_phone": "(626) 799-4595", "distance": 771.9759813668869}, {"id": "ObKbYM3-lRkFz__04p1SSA", "alias": "rahul-jandial-md-phd-south-pasadena", "name": "Rahul Jandial, MD PHD", "image_url": "", "is_closed": false, "url": "https://www.yelp.com/biz/rahul-jandial-md-phd-south-pasadena?adjust_creative=y4osxHmnMD1pXQYRCP96Jg&utm_campaign=yelp_api_v3&utm_medium=api_v3_business_search&utm_source=y4osxHmnMD1pXQYRCP96Jg", "review_count": 3, "categories": [{"alias": "neurologist", "title": "Neurologist"}], "rating": 3.5, "coordinates": {"latitude": 34.1238023983542, "longitude": -118.150544849025}, "transactions": [], "location": {"address1": "209 Fair Oaks Ave", "address2": "", "address3": "", "city": "South Pasadena", "zip_code": "91030", "country": "US", "state": "CA", "display_address": ["209 Fair Oaks Ave", "South Pasadena, CA 91030"]}, "phone": "+16263962900", "display_phone": "(626) 396-2900", "distance": 856.7632004642755}, {"id": "_3oblpPBRnt-AFqhp5MB4w", "alias": "city-of-hope-south-pasadena-south-pasadena", "name": "City Of Hope South Pasadena", "image_url": "https://s3-media1.fl.yelpcdn.com/bphoto/wSNwvS9CrcSWuClr1HUm1Q/o.jpg", "is_closed": false, "url": "https://www.yelp.com/biz/city-of-hope-south-pasadena-south-pasadena?adjust_creative=y4osxHmnMD1pXQYRCP96Jg&utm_campaign=yelp_api_v3&utm_medium=api_v3_business_search&utm_source=y4osxHmnMD1pXQYRCP96Jg", "review_count": 20, "categories": [{"alias": "medcenters", "title": "Medical Centers"}, {"alias": "neurologist", "title": "Neurologist"}], "rating": 3.5, "coordinates": {"latitude": 34.1238107110848, "longitude": -118.150406502826}, "transactions": [], "location": {"address1": "209 Fair Oaks Ave", "address2": "", "address3": "", "city": "South Pasadena", "zip_code": "91030", "country": "US", "state": "CA", "display_address": ["209 Fair Oaks Ave", "South Pasadena, CA 91030"]}, "phone": "+16263962900", "display_phone": "(626) 396-2900", "distance": 857.4470540125293}, {"id": "qrD_cpuqO9mYmSrJpJRwRA", "alias": "stanislawski-and-company-inc-south-pasadena", "name": "Stanislawski & Company, Inc", "image_url": "https://s3-media2.fl.yelpcdn.com/bphoto/UYeRzsSEzUZc8ygRuegWGQ/o.jpg", "is_closed": false, "url": "https://www.yelp.com/biz/stanislawski-and-company-inc-south-pasadena?adjust_creative=y4osxHmnMD1pXQYRCP96Jg&utm_campaign=yelp_api_v3&utm_medium=api_v3_business_search&utm_source=y4osxHmnMD1pXQYRCP96Jg", "review_count": 3, "categories": [{"alias": "accountants", "title": "Accountants"}, {"alias": "payroll", "title": "Payroll Services"}], "rating": 3.0, "coordinates": {"latitude": 34.1158576, "longitude": -118.1611655}, "transactions": [], "location": {"address1": "729 Mission St", "address2": "Ste 100", "address3": "", "city": "South Pasadena", "zip_code": "91030", "country": "US", "state": "CA", "display_address": ["729 Mission St", "Ste 100", "South Pasadena, CA 91030"]}, "phone": "+16264410330", "display_phone": "(626) 441-0330", "distance": 1000.6259886649808}, {"id": "ecjagO9ppzcyWIfootDG-g", "alias": "kim-hodges-los-angeles-4", "name": "Kim Hodges", "image_url": "https://s3-media2.fl.yelpcdn.com/bphoto/TI5v9tuf6COjjnbSv8iJtQ/o.jpg", "is_closed": false, "url": "https://www.yelp.com/biz/kim-hodges-los-angeles-4?adjust_creative=y4osxHmnMD1pXQYRCP96Jg&utm_campaign=yelp_api_v3&utm_medium=api_v3_business_search&utm_source=y4osxHmnMD1pXQYRCP96Jg", "review_count": 2, "categories": [{"alias": "nutritionists", "title": "Nutritionists"}, {"alias": "lifecoach", "title": "Life Coach"}, {"alias": "naturopathic", "title": "Naturopathic/Holistic"}], "rating": 5.0, "coordinates": {"latitude": 34.111415, "longitude": -118.155569}, "transactions": [], "location": {"address1": null, "address2": null, "address3": "", "city": "Los Angeles", "zip_code": "91030", "country": "US", "state": "CA", "display_address": ["Los Angeles, CA 91030"]}, "phone": "+13236093689", "display_phone": "(323) 609-3689", "distance": 1173.6036978041047}, {"id": "3y8aLWGxkkMQ-USIV201Pw", "alias": "justine-j-rhee-dc-innate-chiropractic-and-children-wellness-south-pasadena-2", "name": "Justine J Rhee, DC - Innate Chiropractic & Children Wellness", "image_url": "https://s3-media2.fl.yelpcdn.com/bphoto/7wELzG-9qtqQ9RYQUFJI9A/o.jpg", "is_closed": false, "url": "https://www.yelp.com/biz/justine-j-rhee-dc-innate-chiropractic-and-children-wellness-south-pasadena-2?adjust_creative=y4osxHmnMD1pXQYRCP96Jg&utm_campaign=yelp_api_v3&utm_medium=api_v3_business_search&utm_source=y4osxHmnMD1pXQYRCP96Jg", "review_count": 41, "categories": [{"alias": "chiropractors", "title": "Chiropractors"}], "rating": 5.0, "coordinates": {"latitude": 34.1051862, "longitude": -118.1501139}, "transactions": [], "location": {"address1": "1800 Fair Oaks Ave", "address2": "Ste C", "address3": "Innate Chiropractic and Children's Wellness", "city": "South Pasadena", "zip_code": "91030", "country": "US", "state": "CA", "display_address": ["1800 Fair Oaks Ave", "Ste C", "Innate Chiropractic and Children's Wellness", "South Pasadena, CA 91030"]}, "phone": "+16262196999", "display_phone": "(626) 219-6999", "distance": 1213.6787828803322}, {"id": "tp8LjYyjepVYHQlFn7x6jw", "alias": "craig-g-clark-ph-d-south-pasadena", "name": "Craig G. Clark, Ph.D.", "image_url": "https://s3-media1.fl.yelpcdn.com/bphoto/bvibcP9bqhXFhaG4EcK3_w/o.jpg", "is_closed": false, "url": "https://www.yelp.com/biz/craig-g-clark-ph-d-south-pasadena?adjust_creative=y4osxHmnMD1pXQYRCP96Jg&utm_campaign=yelp_api_v3&utm_medium=api_v3_business_search&utm_source=y4osxHmnMD1pXQYRCP96Jg", "review_count": 3, "categories": [{"alias": "careercounseling", "title": "Career Counseling"}, {"alias": "psychologists", "title": "Psychologists"}], "rating": 3.5, "coordinates": {"latitude": 34.10516, "longitude": -118.15008}, "transactions": [], "location": {"address1": "1800 Fair Oaks Ave", "address2": "Ste A", "address3": "", "city": "South Pasadena", "zip_code": "91030", "country": "US", "state": "CA", "display_address": ["1800 Fair Oaks Ave", "Ste A", "South Pasadena, CA 91030"]}, "phone": "+16264371432", "display_phone": "(626) 437-1432", "distance": 1214.7572269307009}, {"id": "N_D4USg_qBmGq_2kglS6ZQ", "alias": "all-lady-locksmiths-south-pasadena", "name": "All Lady Locksmiths", "image_url": "https://s3-media3.fl.yelpcdn.com/bphoto/dbsGZV8O6ddmpi_b0eyUBw/o.jpg", "is_closed": false, "url": "https://www.yelp.com/biz/all-lady-locksmiths-south-pasadena?adjust_creative=y4osxHmnMD1pXQYRCP96Jg&utm_campaign=yelp_api_v3&utm_medium=api_v3_business_search&utm_source=y4osxHmnMD1pXQYRCP96Jg", "review_count": 17, "categories": [{"alias": "locksmiths", "title": "Keys & Locksmiths"}], "rating": 4.5, "coordinates": {"latitude": 34.1252147201892, "longitude": -118.157901900586}, "transactions": [], "location": {"address1": null, "address2": "", "address3": "", "city": "South Pasadena", "zip_code": "91030", "country": "US", "state": "CA", "display_address": ["South Pasadena, CA 91030"]}, "phone": "+16267995397", "display_phone": "(626) 799-5397", "distance": 1231.6233283329402}, {"id": "jOGUH68acGGP1JHxyDkaqw", "alias": "enrique-arevalo-south-pasadena", "name": "Enrique Arevalo", "image_url": "https://s3-media2.fl.yelpcdn.com/bphoto/OtabugkfrkHEjPzMJ68-Yg/o.jpg", "is_closed": false, "url": "https://www.yelp.com/biz/enrique-arevalo-south-pasadena?adjust_creative=y4osxHmnMD1pXQYRCP96Jg&utm_campaign=yelp_api_v3&utm_medium=api_v3_business_search&utm_source=y4osxHmnMD1pXQYRCP96Jg", "review_count": 9, "categories": [{"alias": "immigrationlawyers", "title": "Immigration Law"}], "rating": 1.5, "coordinates": {"latitude": 34.11537, "longitude": -118.16484}, "transactions": [], "location": {"address1": "505 Mission St", "address2": null, "address3": null, "city": "South Pasadena", "zip_code": "91030", "country": "US", "state": "CA", "display_address": ["505 Mission St", "South Pasadena, CA 91030"]}, "phone": "+16267996585", "display_phone": "(626) 799-6585", "distance": 1344.4452088256746}, {"id": "wUFeKNM_MoFWgPhKw-myzw", "alias": "mitchell-c-latter-md-south-pasadena", "name": "Mitchell C Latter, MD", "image_url": "https://s3-media4.fl.yelpcdn.com/bphoto/4cruNsKH0SJSokdnOus7ew/o.jpg", "is_closed": false, "url": "https://www.yelp.com/biz/mitchell-c-latter-md-south-pasadena?adjust_creative=y4osxHmnMD1pXQYRCP96Jg&utm_campaign=yelp_api_v3&utm_medium=api_v3_business_search&utm_source=y4osxHmnMD1pXQYRCP96Jg", "review_count": 14, "categories": [{"alias": "opthamalogists", "title": "Ophthalmologists"}, {"alias": "opticians", "title": "Eyewear & Opticians"}], "rating": 4.5, "coordinates": {"latitude": 34.10368, "longitude": -118.15046}, "transactions": [], "price": "$$", "location": {"address1": "1499 Huntington Dr", "address2": "Ste 508", "address3": "", "city": "South Pasadena", "zip_code": "91030", "country": "US", "state": "CA", "display_address": ["1499 Huntington Dr", "Ste 508", "South Pasadena, CA 91030"]}, "phone": "+16262252998", "display_phone": "(626) 225-2998", "distance": 1366.0937773092744}, {"id": "YQe_1OcA4Apk7eHU_n5Gow", "alias": "fatboy-marketing-company-south-pasadena", "name": "Fatboy Marketing Company", "image_url": "https://s3-media3.fl.yelpcdn.com/bphoto/fGHeNuWkWtWUjlgJOUW2qg/o.jpg", "is_closed": false, "url": "https://www.yelp.com/biz/fatboy-marketing-company-south-pasadena?adjust_creative=y4osxHmnMD1pXQYRCP96Jg&utm_campaign=yelp_api_v3&utm_medium=api_v3_business_search&utm_source=y4osxHmnMD1pXQYRCP96Jg", "review_count": 2, "categories": [{"alias": "advertising", "title": "Advertising"}, {"alias": "web_design", "title": "Web Design"}, {"alias": "marketing", "title": "Marketing"}], "rating": 4.5, "coordinates": {"latitude": 34.1039451, "longitude": -118.1510851}, "transactions": [], "location": {"address1": "1441 Huntington Dr", "address2": "Ste 141", "address3": "", "city": "South Pasadena", "zip_code": "91030", "country": "US", "state": "CA", "display_address": ["1441 Huntington Dr", "Ste 141", "South Pasadena, CA 91030"]}, "phone": "+18004549024", "display_phone": "(800) 454-9024", "distance": 1366.0940433837727}, {"id": "HPoxThtpnRI3zH2GlKmjSg", "alias": "carrillo-law-firm-south-pasadena-2", "name": "Carrillo Law Firm", "image_url": "https://s3-media2.fl.yelpcdn.com/bphoto/mW9M0ijZ2OvUEtdqNa-uOg/o.jpg", "is_closed": false, "url": "https://www.yelp.com/biz/carrillo-law-firm-south-pasadena-2?adjust_creative=y4osxHmnMD1pXQYRCP96Jg&utm_campaign=yelp_api_v3&utm_medium=api_v3_business_search&utm_source=y4osxHmnMD1pXQYRCP96Jg", "review_count": 22, "categories": [{"alias": "lawyers", "title": "Lawyers"}], "rating": 4.5, "coordinates": {"latitude": 34.10368, "longitude": -118.15046}, "transactions": [], "location": {"address1": "1499 Huntington Dr", "address2": "Ste 402", "address3": "", "city": "South Pasadena", "zip_code": "91030", "country": "US", "state": "CA", "display_address": ["1499 Huntington Dr", "Ste 402", "South Pasadena, CA 91030"]}, "phone": "+16267999375", "display_phone": "(626) 799-9375", "distance": 1366.9885722309948}, {"id": "tys--s0F-mQrKcclmXXEcA", "alias": "kimberly-tien-dilbeck-real-estate-south-pasadena", "name": "Kimberly Tien - Dilbeck Real Estate", "image_url": "https://s3-media3.fl.yelpcdn.com/bphoto/EZET_40qVOdl73IJz_8QHw/o.jpg", "is_closed": false, "url": "https://www.yelp.com/biz/kimberly-tien-dilbeck-real-estate-south-pasadena?adjust_creative=y4osxHmnMD1pXQYRCP96Jg&utm_campaign=yelp_api_v3&utm_medium=api_v3_business_search&utm_source=y4osxHmnMD1pXQYRCP96Jg", "review_count": 2, "categories": [{"alias": "realestateagents", "title": "Real Estate Agents"}], "rating": 5.0, "coordinates": {"latitude": 34.1038034, "longitude": -118.1505311}, "transactions": [], "location": {"address1": "1499 Huntington Dr", "address2": "Ste 100", "address3": "", "city": "South Pasadena", "zip_code": "91030", "country": "US", "state": "CA", "display_address": ["1499 Huntington Dr", "Ste 100", "South Pasadena, CA 91030"]}, "phone": "+12405061271", "display_phone": "(240) 506-1271", "distance": 1367.4835439615135}, {"id": "4OiynUoSVZ5D0u-UrK7q2g", "alias": "wang-center-for-naturopathic-health-pasadena", "name": "Wang Center for Naturopathic Health", "image_url": "https://s3-media1.fl.yelpcdn.com/bphoto/Fs1oZiiDcj-lH9lHS_KWDg/o.jpg", "is_closed": false, "url": "https://www.yelp.com/biz/wang-center-for-naturopathic-health-pasadena?adjust_creative=y4osxHmnMD1pXQYRCP96Jg&utm_campaign=yelp_api_v3&utm_medium=api_v3_business_search&utm_source=y4osxHmnMD1pXQYRCP96Jg", "review_count": 16, "categories": [{"alias": "naturopathic", "title": "Naturopathic/Holistic"}], "rating": 5.0, "coordinates": {"latitude": 34.104599, "longitude": -118.1451874}, "transactions": [], "location": {"address1": "1730 Huntington Dr", "address2": "Ste 204", "address3": "", "city": "Pasadena", "zip_code": "91030", "country": "US", "state": "CA", "display_address": ["1730 Huntington Dr", "Ste 204", "Pasadena, CA 91030"]}, "phone": "+16268084365", "display_phone": "(626) 808-4365", "distance": 1374.0454607052984}, {"id": "PCLyfPGOQSUcESEW5tQKgA", "alias": "reena-r-patel-md-south-pasadena-4", "name": "Reena R Patel, MD", "image_url": "https://s3-media1.fl.yelpcdn.com/bphoto/vLyg_iCN1iK3xh2HHIdU-w/o.jpg", "is_closed": false, "url": "https://www.yelp.com/biz/reena-r-patel-md-south-pasadena-4?adjust_creative=y4osxHmnMD1pXQYRCP96Jg&utm_campaign=yelp_api_v3&utm_medium=api_v3_business_search&utm_source=y4osxHmnMD1pXQYRCP96Jg", "review_count": 22, "categories": [{"alias": "familydr", "title": "Family Practice"}, {"alias": "ayurveda", "title": "Ayurveda"}], "rating": 5.0, "coordinates": {"latitude": 34.1044897, "longitude": -118.1451902}, "transactions": [], "location": {"address1": "1730 Huntington Dr", "address2": "Ste 203", "address3": "", "city": "South Pasadena", "zip_code": "91030", "country": "US", "state": "CA", "display_address": ["1730 Huntington Dr", "Ste 203", "South Pasadena, CA 91030"]}, "phone": "+16267657852", "display_phone": "(626) 765-7852", "distance": 1374.0454607052984}, {"id": "MrxZstjfChEfSwDNVRna_g", "alias": "the-jonathan-group-south-pasadena", "name": "The Jonathan Group", "image_url": "", "is_closed": false, "url": "https://www.yelp.com/biz/the-jonathan-group-south-pasadena?adjust_creative=y4osxHmnMD1pXQYRCP96Jg&utm_campaign=yelp_api_v3&utm_medium=api_v3_business_search&utm_source=y4osxHmnMD1pXQYRCP96Jg", "review_count": 2, "categories": [{"alias": "professional", "title": "Professional Services"}], "rating": 3.0, "coordinates": {"latitude": 34.114978, "longitude": -118.1652249}, "transactions": [], "location": {"address1": "917 Indiana Ave", "address2": "", "address3": "", "city": "South Pasadena", "zip_code": "91030", "country": "US", "state": "CA", "display_address": ["917 Indiana Ave", "South Pasadena, CA 91030"]}, "phone": "+16264036741", "display_phone": "(626) 403-6741", "distance": 1384.445351201627}, {"id": "SYpQnh0P8DgorJqHzbv9eA", "alias": "new-shine-bathtub-refinishing-south-pasadena-2", "name": "New Shine Bathtub Refinishing", "image_url": "https://s3-media1.fl.yelpcdn.com/bphoto/XM59Gq92P79s6AGVgdFSWg/o.jpg", "is_closed": false, "url": "https://www.yelp.com/biz/new-shine-bathtub-refinishing-south-pasadena-2?adjust_creative=y4osxHmnMD1pXQYRCP96Jg&utm_campaign=yelp_api_v3&utm_medium=api_v3_business_search&utm_source=y4osxHmnMD1pXQYRCP96Jg", "review_count": 135, "categories": [{"alias": "refinishing", "title": "Refinishing Services"}], "rating": 4.5, "coordinates": {"latitude": 34.1146377, "longitude": -118.1654074}, "transactions": [], "location": {"address1": "927 1/2 Indiana", "address2": "", "address3": "", "city": "South Pasadena", "zip_code": "91030", "country": "US", "state": "CA", "display_address": ["927 1/2 Indiana", "South Pasadena, CA 91030"]}, "phone": "+16263609111", "display_phone": "(626) 360-9111", "distance": 1400.2491721521658}, {"id": "UQJUl9p_QUtrMFOZnhquuQ", "alias": "sun-kap-enterprises-south-pasadena", "name": "Sun-Kap Enterprises", "image_url": "https://s3-media3.fl.yelpcdn.com/bphoto/GOCi5OS0x5rOiPTqH6nezg/o.jpg", "is_closed": false, "url": "https://www.yelp.com/biz/sun-kap-enterprises-south-pasadena?adjust_creative=y4osxHmnMD1pXQYRCP96Jg&utm_campaign=yelp_api_v3&utm_medium=api_v3_business_search&utm_source=y4osxHmnMD1pXQYRCP96Jg", "review_count": 12, "categories": [{"alias": "taxservices", "title": "Tax Services"}], "rating": 4.0, "coordinates": {"latitude": 34.1034355163574, "longitude": -118.154457092285}, "transactions": [], "location": {"address1": "1260 Huntington Dr", "address2": "Ste 205", "address3": "", "city": "South Pasadena", "zip_code": "91030", "country": "US", "state": "CA", "display_address": ["1260 Huntington Dr", "Ste 205", "South Pasadena, CA 91030"]}, "phone": "+13232542729", "display_phone": "(323) 254-2729", "distance": 1456.356763571164}, {"id": "6WfEjPwqlFaleB4en8u9eQ", "alias": "tax-strategies-south-pasadena", "name": "Tax Strategies", "image_url": "https://s3-media4.fl.yelpcdn.com/bphoto/De0djdHvjMGsIkD1vE-0Gw/o.jpg", "is_closed": false, "url": "https://www.yelp.com/biz/tax-strategies-south-pasadena?adjust_creative=y4osxHmnMD1pXQYRCP96Jg&utm_campaign=yelp_api_v3&utm_medium=api_v3_business_search&utm_source=y4osxHmnMD1pXQYRCP96Jg", "review_count": 26, "categories": [{"alias": "taxservices", "title": "Tax Services"}], "rating": 3.5, "coordinates": {"latitude": 34.10344, "longitude": -118.15445}, "transactions": [], "location": {"address1": "1260 Huntington Dr", "address2": "Ste 201E", "address3": "", "city": "South Pasadena", "zip_code": "91030", "country": "US", "state": "CA", "display_address": ["1260 Huntington Dr", "Ste 201E", "South Pasadena, CA 91030"]}, "phone": "+13234782650", "display_phone": "(323) 478-2650", "distance": 1456.4421890214153}, {"id": "jWV5qji18jMguM8iGkY2oA", "alias": "retina-eye-specialists-south-pasadena", "name": "Retina Eye Specialists", "image_url": "https://s3-media2.fl.yelpcdn.com/bphoto/bNV_VXXT9t-IKj6PjNGJHA/o.jpg", "is_closed": false, "url": "https://www.yelp.com/biz/retina-eye-specialists-south-pasadena?adjust_creative=y4osxHmnMD1pXQYRCP96Jg&utm_campaign=yelp_api_v3&utm_medium=api_v3_business_search&utm_source=y4osxHmnMD1pXQYRCP96Jg", "review_count": 77, "categories": [{"alias": "retinaspecialists", "title": "Retina Specialists"}], "rating": 4.5, "coordinates": {"latitude": 34.1044847423763, "longitude": -118.142938613892}, "transactions": [], "location": {"address1": "1936 Huntington Dr", "address2": "Ste A", "address3": "", "city": "South Pasadena", "zip_code": "91030", "country": "US", "state": "CA", "display_address": ["1936 Huntington Dr", "Ste A", "South Pasadena, CA 91030"]}, "phone": "+16262022446", "display_phone": "(626) 202-2446", "distance": 1458.5706189592977}, {"id": "mDsIfhTPKkR_G9wDQAntVQ", "alias": "berg-feinfeld-vision-correction-south-pasadena", "name": "Berg-Feinfeld Vision Correction", "image_url": "", "is_closed": false, "url": "https://www.yelp.com/biz/berg-feinfeld-vision-correction-south-pasadena?adjust_creative=y4osxHmnMD1pXQYRCP96Jg&utm_campaign=yelp_api_v3&utm_medium=api_v3_business_search&utm_source=y4osxHmnMD1pXQYRCP96Jg", "review_count": 3, "categories": [{"alias": "opthamalogists", "title": "Ophthalmologists"}, {"alias": "laserlasikeyes", "title": "Laser Eye Surgery/Lasik"}], "rating": 1.0, "coordinates": {"latitude": 34.1043849, "longitude": -118.1427036}, "transactions": [], "location": {"address1": "1936 Huntington Dr", "address2": "Unit A", "address3": "", "city": "South Pasadena", "zip_code": "91030", "country": "US", "state": "CA", "display_address": ["1936 Huntington Dr", "Unit A", "South Pasadena, CA 91030"]}, "phone": "+16267959793", "display_phone": "(626) 795-9793", "distance": 1472.3789555084081}, {"id": "maZfJOcySViHm2_I5x2ttQ", "alias": "nancy-galarza-the-divine-real-estate-group-south-pasadena-3", "name": "Nancy Galarza - The Divine Real Estate Group", "image_url": "https://s3-media1.fl.yelpcdn.com/bphoto/2F_LSKx2SSgyasC9dBlzwg/o.jpg", "is_closed": false, "url": "https://www.yelp.com/biz/nancy-galarza-the-divine-real-estate-group-south-pasadena-3?adjust_creative=y4osxHmnMD1pXQYRCP96Jg&utm_campaign=yelp_api_v3&utm_medium=api_v3_business_search&utm_source=y4osxHmnMD1pXQYRCP96Jg", "review_count": 2, "categories": [{"alias": "realestateagents", "title": "Real Estate Agents"}], "rating": 3.0, "coordinates": {"latitude": 34.11187, "longitude": -118.1658}, "transactions": [], "location": {"address1": "406 Monterey Rd", "address2": "", "address3": "", "city": "South Pasadena", "zip_code": "91030", "country": "US", "state": "CA", "display_address": ["406 Monterey Rd", "South Pasadena, CA 91030"]}, "phone": "+15626528523", "display_phone": "(562) 652-8523", "distance": 1502.272901576501}, {"id": "DE6NlyteXlLWpRo67-KzTA", "alias": "jacqueline-woods-lmft-south-pasadena", "name": "Jacqueline Woods, LMFT", "image_url": "https://s3-media4.fl.yelpcdn.com/bphoto/ELYDVIuClpOJWJQnBWeLNw/o.jpg", "is_closed": false, "url": "https://www.yelp.com/biz/jacqueline-woods-lmft-south-pasadena?adjust_creative=y4osxHmnMD1pXQYRCP96Jg&utm_campaign=yelp_api_v3&utm_medium=api_v3_business_search&utm_source=y4osxHmnMD1pXQYRCP96Jg", "review_count": 19, "categories": [{"alias": "c_and_mh", "title": "Counseling & Mental Health"}], "rating": 5.0, "coordinates": {"latitude": 34.104014, "longitude": -118.141964}, "transactions": [], "location": {"address1": "1949 Huntington Dr", "address2": "Unit A", "address3": "Pacific Trauma Treatment Center", "city": "South Pasadena", "zip_code": "91030", "country": "US", "state": "CA", "display_address": ["1949 Huntington Dr", "Unit A", "Pacific Trauma Treatment Center", "South Pasadena, CA 91030"]}, "phone": "+16268084030", "display_phone": "(626) 808-4030", "distance": 1547.596346891069}, {"id": "43h9U6qwmqt32pOaJfsjzA", "alias": "pei-li-zhong-fong-lac-faborm-south-pasadena-2", "name": "Pei Li Zhong-Fong, LAC FABORM", "image_url": "https://s3-media3.fl.yelpcdn.com/bphoto/7KapWDCB94FuEM66Mnddbg/o.jpg", "is_closed": false, "url": "https://www.yelp.com/biz/pei-li-zhong-fong-lac-faborm-south-pasadena-2?adjust_creative=y4osxHmnMD1pXQYRCP96Jg&utm_campaign=yelp_api_v3&utm_medium=api_v3_business_search&utm_source=y4osxHmnMD1pXQYRCP96Jg", "review_count": 15, "categories": [{"alias": "acupuncture", "title": "Acupuncture"}, {"alias": "tcm", "title": "Traditional Chinese Medicine"}, {"alias": "fertility", "title": "Fertility"}], "rating": 5.0, "coordinates": {"latitude": 34.10374, "longitude": -118.14197}, "transactions": [], "location": {"address1": "1949 Huntington Dr", "address2": "", "address3": "", "city": "South Pasadena", "zip_code": "91030", "country": "US", "state": "CA", "display_address": ["1949 Huntington Dr", "South Pasadena, CA 91030"]}, "phone": "+16267998855", "display_phone": "(626) 799-8855", "distance": 1564.2845704774882}, {"id": "jI-VKn6jWza-DkDeFU8lXw", "alias": "emrick-garam-success-coach-south-pasadena", "name": "Emrick Garam Success Coach", "image_url": "https://s3-media3.fl.yelpcdn.com/bphoto/InWi-Xho9YocHJqelq66OQ/o.jpg", "is_closed": false, "url": "https://www.yelp.com/biz/emrick-garam-success-coach-south-pasadena?adjust_creative=y4osxHmnMD1pXQYRCP96Jg&utm_campaign=yelp_api_v3&utm_medium=api_v3_business_search&utm_source=y4osxHmnMD1pXQYRCP96Jg", "review_count": 1, "categories": [{"alias": "businessconsulting", "title": "Business Consulting"}], "rating": 5.0, "coordinates": {"latitude": 34.1227345, "longitude": -118.1664525}, "transactions": [], "location": {"address1": "San Pascual Ave", "address2": "", "address3": "", "city": "South Pasadena", "zip_code": "91030", "country": "US", "state": "CA", "display_address": ["San Pascual Ave", "South Pasadena, CA 91030"]}, "phone": "+13235376757", "display_phone": "(323) 537-6757", "distance": 1659.8656160083785}, {"id": "d6anvKGfzWSDgzpw38_fZQ", "alias": "garden-gnome-design-south-pasadena", "name": "Garden Gnome Design", "image_url": "https://s3-media2.fl.yelpcdn.com/bphoto/A7SFWaV3FnbJV4e-Qr1-CQ/o.jpg", "is_closed": false, "url": "https://www.yelp.com/biz/garden-gnome-design-south-pasadena?adjust_creative=y4osxHmnMD1pXQYRCP96Jg&utm_campaign=yelp_api_v3&utm_medium=api_v3_business_search&utm_source=y4osxHmnMD1pXQYRCP96Jg", "review_count": 7, "categories": [{"alias": "eventplanning", "title": "Party & Event Planning"}, {"alias": "landscapearchitects", "title": "Landscape Architects"}, {"alias": "landscaping", "title": "Landscaping"}], "rating": 5.0, "coordinates": {"latitude": 34.109293, "longitude": -118.16668}, "transactions": [], "location": {"address1": "100 Mountain Ave", "address2": null, "address3": "", "city": "South Pasadena", "zip_code": "91030", "country": "US", "state": "CA", "display_address": ["100 Mountain Ave", "South Pasadena, CA 91030"]}, "phone": "+16268723409", "display_phone": "(626) 872-3409", "distance": 1687.2764532367971}, {"id": "UHezd4zhOWux9mhSHvNjxg", "alias": "henson-and-company-cpas-south-pasadena", "name": "Henson & Company CPA's", "image_url": "https://s3-media2.fl.yelpcdn.com/bphoto/6nZJqJx10KA0EKdqmwZZfQ/o.jpg", "is_closed": false, "url": "https://www.yelp.com/biz/henson-and-company-cpas-south-pasadena?adjust_creative=y4osxHmnMD1pXQYRCP96Jg&utm_campaign=yelp_api_v3&utm_medium=api_v3_business_search&utm_source=y4osxHmnMD1pXQYRCP96Jg", "review_count": 5, "categories": [{"alias": "accountants", "title": "Accountants"}, {"alias": "taxservices", "title": "Tax Services"}, {"alias": "payroll", "title": "Payroll Services"}], "rating": 5.0, "coordinates": {"latitude": 34.104701, "longitude": -118.13742}, "transactions": [], "location": {"address1": "2045 Huntington Dr", "address2": "", "address3": "", "city": "South Pasadena", "zip_code": "91030", "country": "US", "state": "CA", "display_address": ["2045 Huntington Dr", "South Pasadena, CA 91030"]}, "phone": "+16264034410", "display_phone": "(626) 403-4410", "distance": 1725.4351394345492}, {"id": "alpLskSddhNKyRUULjpwgw", "alias": "mr-electric-south-pasadena", "name": "MR Electric", "image_url": "https://s3-media2.fl.yelpcdn.com/bphoto/NyMcEJRIub0JxPcatnbhPw/o.jpg", "is_closed": false, "url": "https://www.yelp.com/biz/mr-electric-south-pasadena?adjust_creative=y4osxHmnMD1pXQYRCP96Jg&utm_campaign=yelp_api_v3&utm_medium=api_v3_business_search&utm_source=y4osxHmnMD1pXQYRCP96Jg", "review_count": 54, "categories": [{"alias": "electricians", "title": "Electricians"}], "rating": 5.0, "coordinates": {"latitude": 34.09981, "longitude": -118.15362}, "transactions": [], "location": {"address1": "2038 Empress Ave", "address2": null, "address3": "", "city": "South Pasadena", "zip_code": "91030", "country": "US", "state": "CA", "display_address": ["2038 Empress Ave", "South Pasadena, CA 91030"]}, "phone": "+16263832492", "display_phone": "(626) 383-2492", "distance": 1838.083876459047}, {"id": "OszPMwWzxji3Jpqv1tDtgA", "alias": "giisamex-south-pasadena-7", "name": "Giisamex", "image_url": "https://s3-media3.fl.yelpcdn.com/bphoto/cgf08GS5i3vCZp1Ke1ZtEg/o.jpg", "is_closed": false, "url": "https://www.yelp.com/biz/giisamex-south-pasadena-7?adjust_creative=y4osxHmnMD1pXQYRCP96Jg&utm_campaign=yelp_api_v3&utm_medium=api_v3_business_search&utm_source=y4osxHmnMD1pXQYRCP96Jg", "review_count": 6, "categories": [{"alias": "architects", "title": "Architects"}], "rating": 5.0, "coordinates": {"latitude": 34.110957, "longitude": -118.171706}, "transactions": [], "location": {"address1": "220 Monterey Rd", "address2": null, "address3": "", "city": "South Pasadena", "zip_code": "91030", "country": "US", "state": "CA", "display_address": ["220 Monterey Rd", "South Pasadena, CA 91030"]}, "phone": "+16263162347", "display_phone": "(626) 316-2347", "distance": 2051.9641407141594}, {"id": "zt1S2juDpD8wA8vCZgyRrQ", "alias": "reverse-mortgages-los-angeles-south-pasadena", "name": "Reverse Mortgages - Los Angeles", "image_url": "https://s3-media1.fl.yelpcdn.com/bphoto/OS3WKLTzL1MMlm8FgP-RBQ/o.jpg", "is_closed": false, "url": "https://www.yelp.com/biz/reverse-mortgages-los-angeles-south-pasadena?adjust_creative=y4osxHmnMD1pXQYRCP96Jg&utm_campaign=yelp_api_v3&utm_medium=api_v3_business_search&utm_source=y4osxHmnMD1pXQYRCP96Jg", "review_count": 2, "categories": [{"alias": "mortgagebrokers", "title": "Mortgage Brokers"}], "rating": 5.0, "coordinates": {"latitude": 34.11129, "longitude": -118.17481}, "transactions": [], "location": {"address1": "1010 Sycamore Ave", "address2": "Ste 106", "address3": null, "city": "South Pasadena", "zip_code": "91030", "country": "US", "state": "CA", "display_address": ["1010 Sycamore Ave", "Ste 106", "South Pasadena, CA 91030"]}, "phone": "+18004317002", "display_phone": "(800) 431-7002", "distance": 2288.977901944692}, {"id": "hK9YwuKZUuPWACxwKAPI9Q", "alias": "equity-smart-home-loans-south-pasadena-4", "name": "Equity Smart Home Loans", "image_url": "https://s3-media2.fl.yelpcdn.com/bphoto/U6ny-GV3cDipA_3RGHBm-Q/o.jpg", "is_closed": false, "url": "https://www.yelp.com/biz/equity-smart-home-loans-south-pasadena-4?adjust_creative=y4osxHmnMD1pXQYRCP96Jg&utm_campaign=yelp_api_v3&utm_medium=api_v3_business_search&utm_source=y4osxHmnMD1pXQYRCP96Jg", "review_count": 32, "categories": [{"alias": "mortgagebrokers", "title": "Mortgage Brokers"}], "rating": 5.0, "coordinates": {"latitude": 34.1113892111548, "longitude": -118.174717643073}, "transactions": [], "location": {"address1": "1010 Sycamore Ave", "address2": "Ste 106", "address3": "", "city": "South Pasadena", "zip_code": "91030", "country": "US", "state": "CA", "display_address": ["1010 Sycamore Ave", "Ste 106", "South Pasadena, CA 91030"]}, "phone": "+13232584317", "display_phone": "(323) 258-4317", "distance": 2308.137550669007}, {"id": "CQ_k4WtpTVOd2eG-I0EFbw", "alias": "dirk-de-brito-md-mph-south-pasadena-3", "name": "Dirk de Brito, MD MPH", "image_url": "https://s3-media2.fl.yelpcdn.com/bphoto/Z4E2oQIBnowJ5FfpxiKCeg/o.jpg", "is_closed": false, "url": "https://www.yelp.com/biz/dirk-de-brito-md-mph-south-pasadena-3?adjust_creative=y4osxHmnMD1pXQYRCP96Jg&utm_campaign=yelp_api_v3&utm_medium=api_v3_business_search&utm_source=y4osxHmnMD1pXQYRCP96Jg", "review_count": 94, "categories": [{"alias": "psychiatrists", "title": "Psychiatrists"}], "rating": 2.5, "coordinates": {"latitude": 34.159033, "longitude": -118.150879}, "transactions": [], "location": {"address1": "503 Fair Oaks", "address2": "", "address3": "", "city": "South Pasadena", "zip_code": "91030", "country": "US", "state": "CA", "display_address": ["503 Fair Oaks", "South Pasadena, CA 91030"]}, "phone": "+16264054001", "display_phone": "(626) 405-4001", "distance": 4774.223893571481}]