[{"id": "T-MS-SGeEd1uRoVDqKtEaQ", "alias": "ready-wellness-optimal-health-through-nutrition-and-movement-south-pasadena-2", "name": "Ready Wellness - Optimal Health Through Nutrition & Movement", "image_url": "https://s3-media2.fl.yelpcdn.com/bphoto/91u9fHJSkHoIN_CSBGbx4A/o.jpg", "is_closed": false, "url": "https://www.yelp.com/biz/ready-wellness-optimal-health-through-nutrition-and-movement-south-pasadena-2?adjust_creative=y4osxHmnMD1pXQYRCP96Jg&utm_campaign=yelp_api_v3&utm_medium=api_v3_business_search&utm_source=y4osxHmnMD1pXQYRCP96Jg", "review_count": 9, "categories": [{"alias": "healthtrainers", "title": "Trainers"}, {"alias": "nutritionists", "title": "Nutritionists"}, {"alias": "healthcoach", "title": "Health Coach"}], "rating": 5.0, "coordinates": {"latitude": 34.11738, "longitude": -118.15083}, "transactions": [], "location": {"address1": "", "address2": "", "address3": "", "city": "South Pasadena", "zip_code": "91030", "country": "US", "state": "CA", "display_address": ["South Pasadena, CA 91030"]}, "phone": "+16266221226", "display_phone": "(626) 622-1226", "distance": 4.993195600113268}, {"id": "cEyYkfQ10hfC6LQAcP6uCg", "alias": "arnes-garage-door-south-pasadena", "name": "Arnes Garage Door", "image_url": "https://s3-media1.fl.yelpcdn.com/bphoto/LMrKgBVox9ddA3hMtArGfg/o.jpg", "is_closed": false, "url": "https://www.yelp.com/biz/arnes-garage-door-south-pasadena?adjust_creative=y4osxHmnMD1pXQYRCP96Jg&utm_campaign=yelp_api_v3&utm_medium=api_v3_business_search&utm_source=y4osxHmnMD1pXQYRCP96Jg", "review_count": 17, "categories": [{"alias": "garage_door_services", "title": "Garage Door Services"}], "rating": 4.5, "coordinates": {"latitude": 34.11738, "longitude": -118.15083}, "transactions": [], "location": {"address1": "", "address2": null, "address3": null, "city": "South Pasadena", "zip_code": "91030", "country": "US", "state": "CA", "display_address": ["South Pasadena, CA 91030"]}, "phone": "+16264977004", "display_phone": "(626) 497-7004", "distance": 4.993195600113268}, {"id": "yWdQf1tebVqF92IdvqrIDw", "alias": "adroit-sound-and-entertainment-south-pasadena", "name": "Adroit Sound & Entertainment", "image_url": "https://s3-media1.fl.yelpcdn.com/bphoto/5ykqpaSLBQYlvMaWSfHX0Q/o.jpg", "is_closed": false, "url": "https://www.yelp.com/biz/adroit-sound-and-entertainment-south-pasadena?adjust_creative=y4osxHmnMD1pXQYRCP96Jg&utm_campaign=yelp_api_v3&utm_medium=api_v3_business_search&utm_source=y4osxHmnMD1pXQYRCP96Jg", "review_count": 17, "categories": [{"alias": "djs", "title": "DJs"}, {"alias": "eventplanning", "title": "Party & Event Planning"}, {"alias": "audiovisualequipmentrental", "title": "Audio/Visual Equipment Rental"}], "rating": 5.0, "coordinates": {"latitude": 34.1173782348633, "longitude": -118.150833129883}, "transactions": [], "location": {"address1": null, "address2": null, "address3": "", "city": "South Pasadena", "zip_code": "91030", "country": "US", "state": "CA", "display_address": ["South Pasadena, CA 91030"]}, "phone": "+16263996122", "display_phone": "(626) 399-6122", "distance": 4.993195600113268}, {"id": "_GrYq3e4susTMpoOmFCMBA", "alias": "j-soiree-south-pasadena-3", "name": "J.Soiree", "image_url": "https://s3-media2.fl.yelpcdn.com/bphoto/fBx8y3DGP2Lgmu6pebCSjg/o.jpg", "is_closed": false, "url": "https://www.yelp.com/biz/j-soiree-south-pasadena-3?adjust_creative=y4osxHmnMD1pXQYRCP96Jg&utm_campaign=yelp_api_v3&utm_medium=api_v3_business_search&utm_source=y4osxHmnMD1pXQYRCP96Jg", "review_count": 37, "categories": [{"alias": "wedding_planning", "title": "Wedding Planning"}, {"alias": "eventplanning", "title": "Party & Event Planning"}], "rating": 5.0, "coordinates": {"latitude": 34.1161196, "longitude": -118.1503488}, "transactions": [], "location": {"address1": null, "address2": null, "address3": "", "city": "South Pasadena", "zip_code": "91030", "country": "US", "state": "CA", "display_address": ["South Pasadena, CA 91030"]}, "phone": "+13232303422", "display_phone": "(323) 230-3422", "distance": 4.993195600113268}, {"id": "rJIWTW1mTLQDem-N4VmvXA", "alias": "wishing-well-entertainment-south-pasadena-2", "name": "Wishing Well Entertainment", "image_url": "https://s3-media3.fl.yelpcdn.com/bphoto/lbu4XIHkshEyIvp9eitwDA/o.jpg", "is_closed": false, "url": "https://www.yelp.com/biz/wishing-well-entertainment-south-pasadena-2?adjust_creative=y4osxHmnMD1pXQYRCP96Jg&utm_campaign=yelp_api_v3&utm_medium=api_v3_business_search&utm_source=y4osxHmnMD1pXQYRCP96Jg", "review_count": 268, "categories": [{"alias": "eventplanning", "title": "Party & Event Planning"}, {"alias": "partycharacters", "title": "Party Characters"}], "rating": 5.0, "coordinates": {"latitude": 34.1121113843263, "longitude": -118.156278264487}, "transactions": [], "location": {"address1": "", "address2": null, "address3": "", "city": "South Pasadena", "zip_code": "91030", "country": "US", "state": "CA", "display_address": ["South Pasadena, CA 91030"]}, "phone": "+17143531234", "display_phone": "(714) 353-1234", "distance": 4.993195600113268}, {"id": "fUSDKHeCVaXY3FhI0YCs9Q", "alias": "fair-oaks-pharmacy-and-soda-fountain-south-pasadena", "name": "Fair Oaks Pharmacy and Soda Fountain", "image_url": "https://s3-media3.fl.yelpcdn.com/bphoto/mQsYXz6UmrSy7tzvuYMy4g/o.jpg", "is_closed": false, "url": "https://www.yelp.com/biz/fair-oaks-pharmacy-and-soda-fountain-south-pasadena?adjust_creative=y4osxHmnMD1pXQYRCP96Jg&utm_campaign=yelp_api_v3&utm_medium=api_v3_business_search&utm_source=y4osxHmnMD1pXQYRCP96Jg", "review_count": 759, "categories": [{"alias": "drugstores", "title": "Drugstores"}, {"alias": "icecream", "title": "Ice Cream & Frozen Yogurt"}, {"alias": "burgers", "title": "Burgers"}], "rating": 3.5, "coordinates": {"latitude": 34.1160468883484, "longitude": -118.150555101816}, "transactions": [], "price": "$$", "location": {"address1": "1526 Mission St", "address2": "", "address3": "", "city": "South Pasadena", "zip_code": "91030", "country": "US", "state": "CA", "display_address": ["1526 Mission St", "South Pasadena, CA 91030"]}, "phone": "+16267991414", "display_phone": "(626) 799-1414", "distance": 24.215487367701314}, {"id": "esjYV1O1Hu9H06VvnFq2uA", "alias": "wireless-plus-verizon-authorized-retailer-south-pasadena", "name": "Wireless Plus, Verizon Authorized Retailer", "image_url": "https://s3-media3.fl.yelpcdn.com/bphoto/Tjm8xkYvC2p7FNsD4OAhbQ/o.jpg", "is_closed": false, "url": "https://www.yelp.com/biz/wireless-plus-verizon-authorized-retailer-south-pasadena?adjust_creative=y4osxHmnMD1pXQYRCP96Jg&utm_campaign=yelp_api_v3&utm_medium=api_v3_business_search&utm_source=y4osxHmnMD1pXQYRCP96Jg", "review_count": 28, "categories": [{"alias": "mobilephones", "title": "Mobile Phones"}, {"alias": "cellphoneaccessories", "title": "Mobile Phone Accessories"}], "rating": 3.5, "coordinates": {"latitude": 34.1160834, "longitude": -118.1502051}, "transactions": [], "price": "$$$", "location": {"address1": "816 Fair Oaks Ave", "address2": "", "address3": "", "city": "South Pasadena", "zip_code": "91030", "country": "US", "state": "CA", "display_address": ["816 Fair Oaks Ave", "South Pasadena, CA 91030"]}, "phone": "+16264414000", "display_phone": "(626) 441-4000", "distance": 25.859991123638455}, {"id": "jL_X1UBy0TyR0xNFd7VlUA", "alias": "guss-barbecue-south-pasadena", "name": "Gus's Barbecue", "image_url": "https://s3-media4.fl.yelpcdn.com/bphoto/inQqw8rNmhpIYwPCvSZUaA/o.jpg", "is_closed": false, "url": "https://www.yelp.com/biz/guss-barbecue-south-pasadena?adjust_creative=y4osxHmnMD1pXQYRCP96Jg&utm_campaign=yelp_api_v3&utm_medium=api_v3_business_search&utm_source=y4osxHmnMD1pXQYRCP96Jg", "review_count": 2010, "categories": [{"alias": "bbq", "title": "Barbeque"}], "rating": 4.0, "coordinates": {"latitude": 34.1163948, "longitude": -118.1500394}, "transactions": [], "price": "$$", "location": {"address1": "808 Fair Oaks Ave", "address2": "", "address3": "", "city": "South Pasadena", "zip_code": "91030", "country": "US", "state": "CA", "display_address": ["808 Fair Oaks Ave", "South Pasadena, CA 91030"]}, "phone": "+16267993251", "display_phone": "(626) 799-3251", "distance": 40.62120887929352}, {"id": "ucZAgs5wxBCo-0PT8URSyA", "alias": "cake-sensations-south-pasadena", "name": "Cake Sensations", "image_url": "https://s3-media1.fl.yelpcdn.com/bphoto/a0Mi5JOah2axOwtfyC5hmQ/o.jpg", "is_closed": false, "url": "https://www.yelp.com/biz/cake-sensations-south-pasadena?adjust_creative=y4osxHmnMD1pXQYRCP96Jg&utm_campaign=yelp_api_v3&utm_medium=api_v3_business_search&utm_source=y4osxHmnMD1pXQYRCP96Jg", "review_count": 299, "categories": [{"alias": "bakeries", "title": "Bakeries"}, {"alias": "desserts", "title": "Desserts"}], "rating": 4.0, "coordinates": {"latitude": 34.1163218, "longitude": -118.1504749}, "transactions": [], "price": "$$", "location": {"address1": "811 Fair Oaks Ave", "address2": "", "address3": "", "city": "South Pasadena", "zip_code": "91030", "country": "US", "state": "CA", "display_address": ["811 Fair Oaks Ave", "South Pasadena, CA 91030"]}, "phone": "+16267996799", "display_phone": "(626) 799-6799", "distance": 46.342386072044775}, {"id": "O_QTrjoniV4_wJA_6865hQ", "alias": "canoe-house-south-pasadena", "name": "Canoe House", "image_url": "https://s3-media3.fl.yelpcdn.com/bphoto/KOcBLwuOzrN9UEdNL3U72g/o.jpg", "is_closed": false, "url": "https://www.yelp.com/biz/canoe-house-south-pasadena?adjust_creative=y4osxHmnMD1pXQYRCP96Jg&utm_campaign=yelp_api_v3&utm_medium=api_v3_business_search&utm_source=y4osxHmnMD1pXQYRCP96Jg", "review_count": 681, "categories": [{"alias": "hawaiian", "title": "Hawaiian"}, {"alias": "sportsbars", "title": "Sports Bars"}, {"alias": "breakfast_brunch", "title": "Breakfast & Brunch"}], "rating": 3.5, "coordinates": {"latitude": 34.116644, "longitude": -118.1504649}, "transactions": ["pickup"], "price": "$$", "location": {"address1": "805 Fair Oaks Ave", "address2": "", "address3": "", "city": "South Pasadena", "zip_code": "91030", "country": "US", "state": "CA", "display_address": ["805 Fair Oaks Ave", "South Pasadena, CA 91030"]}, "phone": "+16267994169", "display_phone": "(626) 799-4169", "distance": 62.86539208723283}, {"id": "uFA5VRG7PlVvYvTbj9_9mA", "alias": "shaggy-monkey-childrens-hair-salon-south-pasadena-2", "name": "Shaggy Monkey Children's Hair Salon", "image_url": "https://s3-media2.fl.yelpcdn.com/bphoto/X0zwQuYQdfnntiGZEZlgPA/o.jpg", "is_closed": false, "url": "https://www.yelp.com/biz/shaggy-monkey-childrens-hair-salon-south-pasadena-2?adjust_creative=y4osxHmnMD1pXQYRCP96Jg&utm_campaign=yelp_api_v3&utm_medium=api_v3_business_search&utm_source=y4osxHmnMD1pXQYRCP96Jg", "review_count": 152, "categories": [{"alias": "hair", "title": "Hair Salons"}], "rating": 4.5, "coordinates": {"latitude": 34.1167584715413, "longitude": -118.150018792677}, "transactions": [], "price": "$$", "location": {"address1": "1605 Hope St", "address2": null, "address3": "", "city": "South Pasadena", "zip_code": "91030", "country": "US", "state": "CA", "display_address": ["1605 Hope St", "South Pasadena, CA 91030"]}, "phone": "+16267994247", "display_phone": "(626) 799-4247", "distance": 77.66031062654959}, {"id": "2Kg1rLV1GX3zWgkPk_DsYg", "alias": "the-dinosaur-farm-south-pasadena", "name": "The Dinosaur Farm", "image_url": "https://s3-media1.fl.yelpcdn.com/bphoto/AbTI1PHvTN6pXiTWY8wQGw/o.jpg", "is_closed": false, "url": "https://www.yelp.com/biz/the-dinosaur-farm-south-pasadena?adjust_creative=y4osxHmnMD1pXQYRCP96Jg&utm_campaign=yelp_api_v3&utm_medium=api_v3_business_search&utm_source=y4osxHmnMD1pXQYRCP96Jg", "review_count": 65, "categories": [{"alias": "toys", "title": "Toy Stores"}], "rating": 4.5, "coordinates": {"latitude": 34.1159549, "longitude": -118.1512533}, "transactions": [], "price": "$$", "location": {"address1": "1510 Mission St", "address2": "", "address3": "", "city": "South Pasadena", "zip_code": "91030", "country": "US", "state": "CA", "display_address": ["1510 Mission St", "South Pasadena, CA 91030"]}, "phone": "+16264412767", "display_phone": "(626) 441-2767", "distance": 81.25714334023903}, {"id": "665YnNU3YexfwirvaE4l5g", "alias": "kidds-jewelry-heist-south-pasadena", "name": "Kidd's Jewelry Heist", "image_url": "https://s3-media3.fl.yelpcdn.com/bphoto/Dg3zML1pp_rkpcbU5QEAWw/o.jpg", "is_closed": false, "url": "https://www.yelp.com/biz/kidds-jewelry-heist-south-pasadena?adjust_creative=y4osxHmnMD1pXQYRCP96Jg&utm_campaign=yelp_api_v3&utm_medium=api_v3_business_search&utm_source=y4osxHmnMD1pXQYRCP96Jg", "review_count": 73, "categories": [{"alias": "eventplanning", "title": "Party & Event Planning"}], "rating": 5.0, "coordinates": {"latitude": 34.1159554, "longitude": -118.1512527}, "transactions": [], "location": {"address1": "1510 Mission St", "address2": "", "address3": "", "city": "South Pasadena", "zip_code": "91030", "country": "US", "state": "CA", "display_address": ["1510 Mission St", "South Pasadena, CA 91030"]}, "phone": "+16263199510", "display_phone": "(626) 319-9510", "distance": 82.159707772388}, {"id": "xyv4zVilbQxFzdn6AsjxTA", "alias": "mcdonalds-south-pasadena", "name": "McDonald's", "image_url": "https://s3-media1.fl.yelpcdn.com/bphoto/c7G6xfxSgjk2agSLM84U2w/o.jpg", "is_closed": false, "url": "https://www.yelp.com/biz/mcdonalds-south-pasadena?adjust_creative=y4osxHmnMD1pXQYRCP96Jg&utm_campaign=yelp_api_v3&utm_medium=api_v3_business_search&utm_source=y4osxHmnMD1pXQYRCP96Jg", "review_count": 114, "categories": [{"alias": "burgers", "title": "Burgers"}, {"alias": "hotdogs", "title": "Fast Food"}, {"alias": "coffee", "title": "Coffee & Tea"}], "rating": 2.0, "coordinates": {"latitude": 34.1174316754776, "longitude": -118.149919733405}, "transactions": [], "price": "$", "location": {"address1": "716 Fair Oaks Ave", "address2": "", "address3": "", "city": "South Pasadena", "zip_code": "91030", "country": "US", "state": "CA", "display_address": ["716 Fair Oaks Ave", "South Pasadena, CA 91030"]}, "phone": "+16267999242", "display_phone": "(626) 799-9242", "distance": 152.15707794961057}, {"id": "I0QKLDARDvnuHoeighiJ-Q", "alias": "starbucks-pasadena-71", "name": "Starbucks", "image_url": "https://s3-media4.fl.yelpcdn.com/bphoto/6k4Y8Oa8BQVZAXPRW6hFKA/o.jpg", "is_closed": false, "url": "https://www.yelp.com/biz/starbucks-pasadena-71?adjust_creative=y4osxHmnMD1pXQYRCP96Jg&utm_campaign=yelp_api_v3&utm_medium=api_v3_business_search&utm_source=y4osxHmnMD1pXQYRCP96Jg", "review_count": 65, "categories": [{"alias": "coffee", "title": "Coffee & Tea"}], "rating": 3.5, "coordinates": {"latitude": 34.1147030902107, "longitude": -118.150181}, "transactions": [], "price": "$", "location": {"address1": "1000 S Fair Oaks Ave", "address2": "", "address3": "", "city": "Pasadena", "zip_code": "91030", "country": "US", "state": "CA", "display_address": ["1000 S Fair Oaks Ave", "Pasadena, CA 91030"]}, "phone": "+16264412754", "display_phone": "(626) 441-2754", "distance": 155.71494890495066}, {"id": "hpapCTl6bQ4rgfdUadDl2w", "alias": "wells-fargo-bank-south-pasadena-4", "name": "Wells Fargo Bank", "image_url": "https://s3-media2.fl.yelpcdn.com/bphoto/IGm0BTOo-_Tyd2gFNb8Vxg/o.jpg", "is_closed": false, "url": "https://www.yelp.com/biz/wells-fargo-bank-south-pasadena-4?adjust_creative=y4osxHmnMD1pXQYRCP96Jg&utm_campaign=yelp_api_v3&utm_medium=api_v3_business_search&utm_source=y4osxHmnMD1pXQYRCP96Jg", "review_count": 32, "categories": [{"alias": "banks", "title": "Banks & Credit Unions"}], "rating": 3.0, "coordinates": {"latitude": 34.1147, "longitude": -118.14993}, "transactions": [], "location": {"address1": "1000 Fair Oaks Ave", "address2": "", "address3": "", "city": "South Pasadena", "zip_code": "91030", "country": "US", "state": "CA", "display_address": ["1000 Fair Oaks Ave", "South Pasadena, CA 91030"]}, "phone": "+16267994144", "display_phone": "(626) 799-4144", "distance": 160.6758895518374}, {"id": "qeKyOB-nlkYuZhKAAOZayw", "alias": "cantu-graphics-south-pasadena", "name": "Cantu Graphics", "image_url": "https://s3-media4.fl.yelpcdn.com/bphoto/-2XxkGcifRl-piqfFQ-E9Q/o.jpg", "is_closed": false, "url": "https://www.yelp.com/biz/cantu-graphics-south-pasadena?adjust_creative=y4osxHmnMD1pXQYRCP96Jg&utm_campaign=yelp_api_v3&utm_medium=api_v3_business_search&utm_source=y4osxHmnMD1pXQYRCP96Jg", "review_count": 78, "categories": [{"alias": "copyshops", "title": "Printing Services"}, {"alias": "web_design", "title": "Web Design"}, {"alias": "graphicdesign", "title": "Graphic Design"}], "rating": 4.5, "coordinates": {"latitude": 34.1156528, "longitude": -118.1522285}, "transactions": [], "location": {"address1": "1421 Mission St", "address2": "", "address3": "", "city": "South Pasadena", "zip_code": "91030", "country": "US", "state": "CA", "display_address": ["1421 Mission St", "South Pasadena, CA 91030"]}, "phone": "+16264415631", "display_phone": "(626) 441-5631", "distance": 172.12435716670575}, {"id": "b35ekZHXCFW7jbP1rEx81Q", "alias": "at-and-t-store-south-pasadena", "name": "AT&T Store", "image_url": "https://s3-media2.fl.yelpcdn.com/bphoto/gqlKJINhE6tOPVlc2s1kiA/o.jpg", "is_closed": false, "url": "https://www.yelp.com/biz/at-and-t-store-south-pasadena?adjust_creative=y4osxHmnMD1pXQYRCP96Jg&utm_campaign=yelp_api_v3&utm_medium=api_v3_business_search&utm_source=y4osxHmnMD1pXQYRCP96Jg", "review_count": 42, "categories": [{"alias": "mobilephones", "title": "Mobile Phones"}, {"alias": "cellphoneaccessories", "title": "Mobile Phone Accessories"}], "rating": 3.0, "coordinates": {"latitude": 34.1177804879998, "longitude": -118.150165165645}, "transactions": [], "price": "$$", "location": {"address1": "712 Fair Oaks Blvd", "address2": "", "address3": "", "city": "South Pasadena", "zip_code": "91030", "country": "US", "state": "CA", "display_address": ["712 Fair Oaks Blvd", "South Pasadena, CA 91030"]}, "phone": "+16267997499", "display_phone": "(626) 799-7499", "distance": 187.27333793697807}, {"id": "poueVhdy8RWKOK5n6A6OUw", "alias": "urban-kitchen-south-pasadena", "name": "Urban Kitchen", "image_url": "https://s3-media1.fl.yelpcdn.com/bphoto/oOkz10vwAkAmsr_rwGQyng/o.jpg", "is_closed": false, "url": "https://www.yelp.com/biz/urban-kitchen-south-pasadena?adjust_creative=y4osxHmnMD1pXQYRCP96Jg&utm_campaign=yelp_api_v3&utm_medium=api_v3_business_search&utm_source=y4osxHmnMD1pXQYRCP96Jg", "review_count": 41, "categories": [{"alias": "teambuilding", "title": "Team Building Activities"}, {"alias": "cookingclasses", "title": "Cooking Classes"}, {"alias": "catering", "title": "Caterers"}], "rating": 4.5, "coordinates": {"latitude": 34.114326, "longitude": -118.150739}, "transactions": [], "price": "$$", "location": {"address1": "1009 1/2 Fair Oaks Ave", "address2": null, "address3": "", "city": "South Pasadena", "zip_code": "91030", "country": "US", "state": "CA", "display_address": ["1009 1/2 Fair Oaks Ave", "South Pasadena, CA 91030"]}, "phone": "+16264035633", "display_phone": "(626) 403-5633", "distance": 201.3570006411435}, {"id": "EbRP6lXp58e4da9WwiiFRw", "alias": "mammas-brick-oven-pizza-and-pasta-south-pasadena", "name": "Mamma's Brick Oven Pizza & Pasta", "image_url": "https://s3-media4.fl.yelpcdn.com/bphoto/mNH53RJPub4qr-6XcFFpsg/o.jpg", "is_closed": false, "url": "https://www.yelp.com/biz/mammas-brick-oven-pizza-and-pasta-south-pasadena?adjust_creative=y4osxHmnMD1pXQYRCP96Jg&utm_campaign=yelp_api_v3&utm_medium=api_v3_business_search&utm_source=y4osxHmnMD1pXQYRCP96Jg", "review_count": 961, "categories": [{"alias": "pizza", "title": "Pizza"}, {"alias": "italian", "title": "Italian"}, {"alias": "gluten_free", "title": "Gluten-Free"}], "rating": 4.0, "coordinates": {"latitude": 34.11795, "longitude": -118.149894}, "transactions": [], "price": "$", "location": {"address1": "710 Fair Oaks Ave", "address2": "", "address3": "", "city": "South Pasadena", "zip_code": "91030", "country": "US", "state": "CA", "display_address": ["710 Fair Oaks Ave", "South Pasadena, CA 91030"]}, "phone": "+16267991344", "display_phone": "(626) 799-1344", "distance": 204.66723932953698}, {"id": "r1IHWTjOUcJxUT02mTe5ZQ", "alias": "bristol-farms-south-pasadena", "name": "Bristol Farms", "image_url": "https://s3-media4.fl.yelpcdn.com/bphoto/qXOskp3x0Aw2qHChlnAD9g/o.jpg", "is_closed": false, "url": "https://www.yelp.com/biz/bristol-farms-south-pasadena?adjust_creative=y4osxHmnMD1pXQYRCP96Jg&utm_campaign=yelp_api_v3&utm_medium=api_v3_business_search&utm_source=y4osxHmnMD1pXQYRCP96Jg", "review_count": 312, "categories": [{"alias": "grocery", "title": "Grocery"}, {"alias": "gourmet", "title": "Specialty Food"}, {"alias": "beer_and_wine", "title": "Beer, Wine & Spirits"}], "rating": 3.5, "coordinates": {"latitude": 34.1184448793723, "longitude": -118.14988145881}, "transactions": [], "price": "$$", "location": {"address1": "606 Fair Oaks Ave", "address2": "", "address3": "", "city": "South Pasadena", "zip_code": "91030", "country": "US", "state": "CA", "display_address": ["606 Fair Oaks Ave", "South Pasadena, CA 91030"]}, "phone": "+16264415450", "display_phone": "(626) 441-5450", "distance": 263.5698274265006}, {"id": "NC3kz10K9k1ubwvVYYlGNw", "alias": "justin-hu-od-south-pasadena-eye-care-south-pasadena", "name": "Justin Hu, OD - South Pasadena Eye Care", "image_url": "https://s3-media1.fl.yelpcdn.com/bphoto/28HdXKVLljC4eM7o7yw8TA/o.jpg", "is_closed": false, "url": "https://www.yelp.com/biz/justin-hu-od-south-pasadena-eye-care-south-pasadena?adjust_creative=y4osxHmnMD1pXQYRCP96Jg&utm_campaign=yelp_api_v3&utm_medium=api_v3_business_search&utm_source=y4osxHmnMD1pXQYRCP96Jg", "review_count": 118, "categories": [{"alias": "optometrists", "title": "Optometrists"}, {"alias": "opticians", "title": "Eyewear & Opticians"}], "rating": 5.0, "coordinates": {"latitude": 34.11363, "longitude": -118.1505049}, "transactions": [], "price": "$$", "location": {"address1": "1103 Fair Oaks Ave", "address2": "", "address3": "", "city": "South Pasadena", "zip_code": "91030", "country": "US", "state": "CA", "display_address": ["1103 Fair Oaks Ave", "South Pasadena, CA 91030"]}, "phone": "+16264410770", "display_phone": "(626) 441-0770", "distance": 279.2858760731615}, {"id": "Rqaa244AGpzul7ngCTs3Iw", "alias": "carrows-restaurants-south-pasadena-4", "name": "Carrows Restaurants", "image_url": "https://s3-media3.fl.yelpcdn.com/bphoto/Yv3j5r8ttYuxGkU4wl_4rQ/o.jpg", "is_closed": false, "url": "https://www.yelp.com/biz/carrows-restaurants-south-pasadena-4?adjust_creative=y4osxHmnMD1pXQYRCP96Jg&utm_campaign=yelp_api_v3&utm_medium=api_v3_business_search&utm_source=y4osxHmnMD1pXQYRCP96Jg", "review_count": 180, "categories": [{"alias": "diners", "title": "Diners"}, {"alias": "tradamerican", "title": "American (Traditional)"}, {"alias": "breakfast_brunch", "title": "Breakfast & Brunch"}], "rating": 3.5, "coordinates": {"latitude": 34.11621, "longitude": -118.15349}, "transactions": [], "price": "$$", "location": {"address1": "815 Fremont Ave", "address2": "", "address3": "", "city": "South Pasadena", "zip_code": "91030", "country": "US", "state": "CA", "display_address": ["815 Fremont Ave", "South Pasadena, CA 91030"]}, "phone": "+16267990561", "display_phone": "(626) 799-0561", "distance": 282.38851482995807}, {"id": "o6PJCubo0na2M6SSRhwBwA", "alias": "blaze-fast-fired-pizza-south-pasadena", "name": "Blaze Fast-Fire'd Pizza", "image_url": "https://s3-media1.fl.yelpcdn.com/bphoto/eWh_Fgku6XjxtKiacbTyJQ/o.jpg", "is_closed": false, "url": "https://www.yelp.com/biz/blaze-fast-fired-pizza-south-pasadena?adjust_creative=y4osxHmnMD1pXQYRCP96Jg&utm_campaign=yelp_api_v3&utm_medium=api_v3_business_search&utm_source=y4osxHmnMD1pXQYRCP96Jg", "review_count": 125, "categories": [{"alias": "pizza", "title": "Pizza"}, {"alias": "salad", "title": "Salad"}, {"alias": "hotdogs", "title": "Fast Food"}], "rating": 3.5, "coordinates": {"latitude": 34.11361, "longitude": -118.14993}, "transactions": [], "price": "$$", "location": {"address1": "1100 Fair Oaks Ave", "address2": null, "address3": "", "city": "South Pasadena", "zip_code": "91030", "country": "US", "state": "CA", "display_address": ["1100 Fair Oaks Ave", "South Pasadena, CA 91030"]}, "phone": "+16265000498", "display_phone": "(626) 500-0498", "distance": 285.2960269219005}, {"id": "cxQ__ddRaWaAFLtkDpTC8A", "alias": "goss-and-company-an-accountancy-corporation-south-pasadena", "name": "Goss & Company An Accountancy Corporation", "image_url": "", "is_closed": false, "url": "https://www.yelp.com/biz/goss-and-company-an-accountancy-corporation-south-pasadena?adjust_creative=y4osxHmnMD1pXQYRCP96Jg&utm_campaign=yelp_api_v3&utm_medium=api_v3_business_search&utm_source=y4osxHmnMD1pXQYRCP96Jg", "review_count": 1, "categories": [{"alias": "accountants", "title": "Accountants"}, {"alias": "taxservices", "title": "Tax Services"}], "rating": 4.0, "coordinates": {"latitude": 34.1165, "longitude": -118.153381}, "transactions": [], "location": {"address1": "807 Fremont Ave", "address2": "", "address3": "", "city": "South Pasadena", "zip_code": "91030", "country": "US", "state": "CA", "display_address": ["807 Fremont Ave", "South Pasadena, CA 91030"]}, "phone": "+16264418020", "display_phone": "(626) 441-8020", "distance": 287.67521246102166}, {"id": "Ow8SLr2f4KA6lk3zAtoOnw", "alias": "sincerely-vave-south-pasadena", "name": "Sincerely Vave", "image_url": "https://s3-media3.fl.yelpcdn.com/bphoto/LspiHdlPyKo7A97HolK9ww/o.jpg", "is_closed": false, "url": "https://www.yelp.com/biz/sincerely-vave-south-pasadena?adjust_creative=y4osxHmnMD1pXQYRCP96Jg&utm_campaign=yelp_api_v3&utm_medium=api_v3_business_search&utm_source=y4osxHmnMD1pXQYRCP96Jg", "review_count": 48, "categories": [{"alias": "florists", "title": "Florists"}, {"alias": "floraldesigners", "title": "Floral Designers"}], "rating": 4.5, "coordinates": {"latitude": 34.115509, "longitude": -118.153351}, "transactions": [], "price": "$$", "location": {"address1": "915 Fremont Ave", "address2": null, "address3": "", "city": "South Pasadena", "zip_code": "91030", "country": "US", "state": "CA", "display_address": ["915 Fremont Ave", "South Pasadena, CA 91030"]}, "phone": "+13234879147", "display_phone": "(323) 487-9147", "distance": 288.45686600983737}, {"id": "R0_I8Mmigo1fLBZ2aHv3vA", "alias": "the-ups-store-south-pasadena", "name": "The UPS Store", "image_url": "https://s3-media4.fl.yelpcdn.com/bphoto/gXXLNIK4JgiDKGAXbEt9qA/o.jpg", "is_closed": false, "url": "https://www.yelp.com/biz/the-ups-store-south-pasadena?adjust_creative=y4osxHmnMD1pXQYRCP96Jg&utm_campaign=yelp_api_v3&utm_medium=api_v3_business_search&utm_source=y4osxHmnMD1pXQYRCP96Jg", "review_count": 69, "categories": [{"alias": "copyshops", "title": "Printing Services"}, {"alias": "shipping_centers", "title": "Shipping Centers"}, {"alias": "mailboxcenters", "title": "Mailbox Centers"}], "rating": 3.5, "coordinates": {"latitude": 34.1136541096782, "longitude": -118.151504061658}, "transactions": [], "location": {"address1": "1107 Fair Oaks Ave", "address2": "", "address3": "", "city": "South Pasadena", "zip_code": "91030", "country": "US", "state": "CA", "display_address": ["1107 Fair Oaks Ave", "South Pasadena, CA 91030"]}, "phone": "+16267994589", "display_phone": "(626) 799-4589", "distance": 293.69134899381663}, {"id": "CB8G6WrXAx7mmcpCewMeKw", "alias": "ludwig-marketing-and-sales-south-pasadena", "name": "Ludwig Marketing & Sales", "image_url": "https://s3-media2.fl.yelpcdn.com/bphoto/unUahCNpgMgBpQjvrB-L4Q/o.jpg", "is_closed": false, "url": "https://www.yelp.com/biz/ludwig-marketing-and-sales-south-pasadena?adjust_creative=y4osxHmnMD1pXQYRCP96Jg&utm_campaign=yelp_api_v3&utm_medium=api_v3_business_search&utm_source=y4osxHmnMD1pXQYRCP96Jg", "review_count": 2, "categories": [{"alias": "marketing", "title": "Marketing"}], "rating": 5.0, "coordinates": {"latitude": 34.1184877, "longitude": -118.1488609}, "transactions": [], "location": {"address1": "628 1/2 Brent Ave", "address2": "", "address3": "", "city": "South Pasadena", "zip_code": "91030", "country": "US", "state": "CA", "display_address": ["628 1/2 Brent Ave", "South Pasadena, CA 91030"]}, "phone": "+16263990331", "display_phone": "(626) 399-0331", "distance": 296.7169989540272}, {"id": "GVJsCs3mjJfC2jEQRAwCWA", "alias": "mathnasium-of-south-pasadena-south-pasadena-3", "name": "Mathnasium of South Pasadena", "image_url": "https://s3-media2.fl.yelpcdn.com/bphoto/D9oFEJno97oZzAf1jDrxVg/o.jpg", "is_closed": false, "url": "https://www.yelp.com/biz/mathnasium-of-south-pasadena-south-pasadena-3?adjust_creative=y4osxHmnMD1pXQYRCP96Jg&utm_campaign=yelp_api_v3&utm_medium=api_v3_business_search&utm_source=y4osxHmnMD1pXQYRCP96Jg", "review_count": 17, "categories": [{"alias": "tutoring", "title": "Tutoring Centers"}, {"alias": "educationservices", "title": "Educational Services"}], "rating": 5.0, "coordinates": {"latitude": 34.1132614, "longitude": -118.1505049}, "transactions": [], "location": {"address1": "1109 Fair Oaks Ave", "address2": "", "address3": "", "city": "South Pasadena", "zip_code": "91030", "country": "US", "state": "CA", "display_address": ["1109 Fair Oaks Ave", "South Pasadena, CA 91030"]}, "phone": "+16265327587", "display_phone": "(626) 532-7587", "distance": 299.923494910619}, {"id": "1XY5uR1lSyYJcI3_oYtx5g", "alias": "grassroots-natural-market-and-kitchen-south-pasadena", "name": "Grassroots Natural Market & Kitchen", "image_url": "https://s3-media3.fl.yelpcdn.com/bphoto/Nnvbs2t_gINlrjowuNRGaw/o.jpg", "is_closed": false, "url": "https://www.yelp.com/biz/grassroots-natural-market-and-kitchen-south-pasadena?adjust_creative=y4osxHmnMD1pXQYRCP96Jg&utm_campaign=yelp_api_v3&utm_medium=api_v3_business_search&utm_source=y4osxHmnMD1pXQYRCP96Jg", "review_count": 377, "categories": [{"alias": "gourmet", "title": "Specialty Food"}, {"alias": "grocery", "title": "Grocery"}, {"alias": "juicebars", "title": "Juice Bars & Smoothies"}], "rating": 4.5, "coordinates": {"latitude": 34.113365, "longitude": -118.151411}, "transactions": ["pickup"], "price": "$$", "location": {"address1": "1119 Fair Oaks Ave", "address2": "", "address3": "", "city": "South Pasadena", "zip_code": "91030", "country": "US", "state": "CA", "display_address": ["1119 Fair Oaks Ave", "South Pasadena, CA 91030"]}, "phone": "+16267990156", "display_phone": "(626) 799-0156", "distance": 320.8559593734072}, {"id": "J7CLd6liSkx2YkRo7GVx-Q", "alias": "express-employment-professionals-south-pasadena", "name": "Express Employment Professionals", "image_url": "https://s3-media3.fl.yelpcdn.com/bphoto/GEyr6cyl7eqbHp-ec3TleQ/o.jpg", "is_closed": false, "url": "https://www.yelp.com/biz/express-employment-professionals-south-pasadena?adjust_creative=y4osxHmnMD1pXQYRCP96Jg&utm_campaign=yelp_api_v3&utm_medium=api_v3_business_search&utm_source=y4osxHmnMD1pXQYRCP96Jg", "review_count": 35, "categories": [{"alias": "employmentagencies", "title": "Employment Agencies"}, {"alias": "careercounseling", "title": "Career Counseling"}], "rating": 4.5, "coordinates": {"latitude": 34.1173629694311, "longitude": -118.153454283289}, "transactions": [], "location": {"address1": "709 Fremont Ave", "address2": "Ste A", "address3": "", "city": "South Pasadena", "zip_code": "91030", "country": "US", "state": "CA", "display_address": ["709 Fremont Ave", "Ste A", "South Pasadena, CA 91030"]}, "phone": "+16268443562", "display_phone": "(626) 844-3562", "distance": 322.55326069644207}, {"id": "wGZK-QUKUfGGF7IhwtbFbg", "alias": "round-table-pizza-south-pasadena", "name": "Round Table Pizza", "image_url": "https://s3-media2.fl.yelpcdn.com/bphoto/3w9LABwYhkWTWdGl8ZH-qw/o.jpg", "is_closed": false, "url": "https://www.yelp.com/biz/round-table-pizza-south-pasadena?adjust_creative=y4osxHmnMD1pXQYRCP96Jg&utm_campaign=yelp_api_v3&utm_medium=api_v3_business_search&utm_source=y4osxHmnMD1pXQYRCP96Jg", "review_count": 102, "categories": [{"alias": "pizza", "title": "Pizza"}, {"alias": "buffets", "title": "Buffets"}], "rating": 3.0, "coordinates": {"latitude": 34.113258, "longitude": -118.151282}, "transactions": ["pickup", "delivery"], "price": "$$", "location": {"address1": "1127 Fair Oaks Avenue", "address2": "", "address3": "", "city": "South Pasadena", "zip_code": "91030", "country": "US", "state": "CA", "display_address": ["1127 Fair Oaks Avenue", "South Pasadena, CA 91030"]}, "phone": "+16264414269", "display_phone": "(626) 441-4269", "distance": 328.6922156344292}, {"id": "xdiVNCsDsr6a9XRfJ7-cpw", "alias": "the-jireh-group-south-pasadena", "name": "The Jireh Group", "image_url": "https://s3-media1.fl.yelpcdn.com/bphoto/lKwPNIR7TRIK_qRX_z-pFA/o.jpg", "is_closed": false, "url": "https://www.yelp.com/biz/the-jireh-group-south-pasadena?adjust_creative=y4osxHmnMD1pXQYRCP96Jg&utm_campaign=yelp_api_v3&utm_medium=api_v3_business_search&utm_source=y4osxHmnMD1pXQYRCP96Jg", "review_count": 10, "categories": [{"alias": "propertymgmt", "title": "Property Management"}], "rating": 4.0, "coordinates": {"latitude": 34.1131285, "longitude": -118.1502351}, "transactions": [], "location": {"address1": "1116 Fair Oaks Ave", "address2": null, "address3": "", "city": "South Pasadena", "zip_code": "91030", "country": "US", "state": "CA", "display_address": ["1116 Fair Oaks Ave", "South Pasadena, CA 91030"]}, "phone": "+16263249448", "display_phone": "(626) 324-9448", "distance": 336.0202238112211}, {"id": "aQXgpOjYMaFl_SEVDzAOSQ", "alias": "us-post-office-south-pasadena", "name": "US Post Office", "image_url": "https://s3-media2.fl.yelpcdn.com/bphoto/PSgBfB1_5GLsSK_2COX7lw/o.jpg", "is_closed": false, "url": "https://www.yelp.com/biz/us-post-office-south-pasadena?adjust_creative=y4osxHmnMD1pXQYRCP96Jg&utm_campaign=yelp_api_v3&utm_medium=api_v3_business_search&utm_source=y4osxHmnMD1pXQYRCP96Jg", "review_count": 85, "categories": [{"alias": "postoffices", "title": "Post Offices"}, {"alias": "shipping_centers", "title": "Shipping Centers"}], "rating": 3.0, "coordinates": {"latitude": 34.1145975, "longitude": -118.1532449}, "transactions": [], "location": {"address1": "1001 Fremont Ave", "address2": "", "address3": "", "city": "South Pasadena", "zip_code": "91030", "country": "US", "state": "CA", "display_address": ["1001 Fremont Ave", "South Pasadena, CA 91030"]}, "phone": "+16267993024", "display_phone": "(626) 799-3024", "distance": 345.1889980954468}, {"id": "_6pGmhT51572qOzHjcgKlw", "alias": "sport-clips-haircuts-of-south-pasadena-fair-oaks-south-pasadena", "name": "Sport Clips Haircuts of South Pasadena - Fair Oaks", "image_url": "https://s3-media2.fl.yelpcdn.com/bphoto/jS3NIq9Bc-Fw4FOKDfnadA/o.jpg", "is_closed": false, "url": "https://www.yelp.com/biz/sport-clips-haircuts-of-south-pasadena-fair-oaks-south-pasadena?adjust_creative=y4osxHmnMD1pXQYRCP96Jg&utm_campaign=yelp_api_v3&utm_medium=api_v3_business_search&utm_source=y4osxHmnMD1pXQYRCP96Jg", "review_count": 131, "categories": [{"alias": "barbers", "title": "Barbers"}, {"alias": "menshair", "title": "Men's Hair Salons"}], "rating": 4.5, "coordinates": {"latitude": 34.1129226812185, "longitude": -118.150128275156}, "transactions": [], "price": "$$", "location": {"address1": "1124 Fair Oaks Ave", "address2": "", "address3": "", "city": "South Pasadena", "zip_code": "91030", "country": "US", "state": "CA", "display_address": ["1124 Fair Oaks Ave", "South Pasadena, CA 91030"]}, "phone": "+16268001417", "display_phone": "(626) 800-1417", "distance": 353.6548600228058}, {"id": "3Vs9ER15XsvO7Zv-_YWGFQ", "alias": "vons-south-pasadena", "name": "Vons", "image_url": "https://s3-media1.fl.yelpcdn.com/bphoto/Mhpf4kMD8zf2hDwnEUl8Tg/o.jpg", "is_closed": false, "url": "https://www.yelp.com/biz/vons-south-pasadena?adjust_creative=y4osxHmnMD1pXQYRCP96Jg&utm_campaign=yelp_api_v3&utm_medium=api_v3_business_search&utm_source=y4osxHmnMD1pXQYRCP96Jg", "review_count": 87, "categories": [{"alias": "grocery", "title": "Grocery"}], "rating": 2.5, "coordinates": {"latitude": 34.112854, "longitude": -118.15146}, "transactions": [], "price": "$$", "location": {"address1": "1129 Fair Oaks Ave", "address2": "", "address3": "", "city": "South Pasadena", "zip_code": "91030", "country": "US", "state": "CA", "display_address": ["1129 Fair Oaks Ave", "South Pasadena, CA 91030"]}, "phone": "+16264413898", "display_phone": "(626) 441-3898", "distance": 376.40478235184355}, {"id": "UHwo9ItkkTMsGZLtbuyVWw", "alias": "massage-envy-south-pasadena-south-pasadena-2", "name": "Massage Envy - South Pasadena", "image_url": "https://s3-media1.fl.yelpcdn.com/bphoto/TZe2gSVP5HsLdeo62j9coA/o.jpg", "is_closed": false, "url": "https://www.yelp.com/biz/massage-envy-south-pasadena-south-pasadena-2?adjust_creative=y4osxHmnMD1pXQYRCP96Jg&utm_campaign=yelp_api_v3&utm_medium=api_v3_business_search&utm_source=y4osxHmnMD1pXQYRCP96Jg", "review_count": 122, "categories": [{"alias": "massage", "title": "Massage"}, {"alias": "skincare", "title": "Skin Care"}, {"alias": "massage_therapy", "title": "Massage Therapy"}], "rating": 4.0, "coordinates": {"latitude": 34.112522, "longitude": -118.150133}, "transactions": [], "price": "$$", "location": {"address1": "1136 Fair Oaks Ave", "address2": "", "address3": "", "city": "South Pasadena", "zip_code": "91030", "country": "US", "state": "CA", "display_address": ["1136 Fair Oaks Ave", "South Pasadena, CA 91030"]}, "phone": "+16264036000", "display_phone": "(626) 403-6000", "distance": 398.15194175900393}, {"id": "1JBlaWBoK34N6ZoFfk3ImA", "alias": "supercuts-south-pasadena", "name": "Supercuts", "image_url": "https://s3-media4.fl.yelpcdn.com/bphoto/y2B8N4L7vkv6OpBgQCSzAg/o.jpg", "is_closed": false, "url": "https://www.yelp.com/biz/supercuts-south-pasadena?adjust_creative=y4osxHmnMD1pXQYRCP96Jg&utm_campaign=yelp_api_v3&utm_medium=api_v3_business_search&utm_source=y4osxHmnMD1pXQYRCP96Jg", "review_count": 103, "categories": [{"alias": "hair", "title": "Hair Salons"}], "rating": 3.0, "coordinates": {"latitude": 34.11243, "longitude": -118.151}, "transactions": [], "price": "$", "location": {"address1": "1141 Fair Oaks Ave", "address2": "Vons Shopping Center", "address3": "", "city": "South Pasadena", "zip_code": "91030", "country": "US", "state": "CA", "display_address": ["1141 Fair Oaks Ave", "Vons Shopping Center", "South Pasadena, CA 91030"]}, "phone": "+16267999135", "display_phone": "(626) 799-9135", "distance": 402.6190139792925}, {"id": "5ZyABK1w-vd5_vYBTHvJZg", "alias": "fedex-office-print-and-ship-center-south-pasadena", "name": "FedEx Office Print & Ship Center", "image_url": "https://s3-media3.fl.yelpcdn.com/bphoto/9x-ssVvhByG4DCeZnwJt9A/o.jpg", "is_closed": false, "url": "https://www.yelp.com/biz/fedex-office-print-and-ship-center-south-pasadena?adjust_creative=y4osxHmnMD1pXQYRCP96Jg&utm_campaign=yelp_api_v3&utm_medium=api_v3_business_search&utm_source=y4osxHmnMD1pXQYRCP96Jg", "review_count": 125, "categories": [{"alias": "copyshops", "title": "Printing Services"}, {"alias": "shipping_centers", "title": "Shipping Centers"}, {"alias": "signmaking", "title": "Signmaking"}], "rating": 2.5, "coordinates": {"latitude": 34.11974, "longitude": -118.1497934}, "transactions": [], "location": {"address1": "460 Fair Oaks Ave", "address2": "", "address3": "", "city": "South Pasadena", "zip_code": "91030", "country": "US", "state": "CA", "display_address": ["460 Fair Oaks Ave", "South Pasadena, CA 91030"]}, "phone": "+16264036690", "display_phone": "(626) 403-6690", "distance": 407.42695200491596}, {"id": "HEnbdepaDjBe8-q8C63wdA", "alias": "jersey-mikes-subs-south-pasadena-3", "name": "Jersey Mike's Subs", "image_url": "https://s3-media2.fl.yelpcdn.com/bphoto/whbelbzrtH4itRytw1pJPQ/o.jpg", "is_closed": false, "url": "https://www.yelp.com/biz/jersey-mikes-subs-south-pasadena-3?adjust_creative=y4osxHmnMD1pXQYRCP96Jg&utm_campaign=yelp_api_v3&utm_medium=api_v3_business_search&utm_source=y4osxHmnMD1pXQYRCP96Jg", "review_count": 129, "categories": [{"alias": "sandwiches", "title": "Sandwiches"}, {"alias": "hotdogs", "title": "Fast Food"}, {"alias": "delis", "title": "Delis"}], "rating": 3.5, "coordinates": {"latitude": 34.1199301223542, "longitude": -118.149772809367}, "transactions": [], "price": "$", "location": {"address1": "462 Fair Oaks Ave", "address2": "", "address3": "", "city": "South Pasadena", "zip_code": "91030", "country": "US", "state": "CA", "display_address": ["462 Fair Oaks Ave", "South Pasadena, CA 91030"]}, "phone": "+16264030400", "display_phone": "(626) 403-0400", "distance": 428.64591740614907}, {"id": "cROCEaWn8z_ceowPPPd2Tw", "alias": "starbucks-south-pasadena-3", "name": "Starbucks", "image_url": "https://s3-media2.fl.yelpcdn.com/bphoto/h6CVZvRD4OtLl62cd5WL-A/o.jpg", "is_closed": false, "url": "https://www.yelp.com/biz/starbucks-south-pasadena-3?adjust_creative=y4osxHmnMD1pXQYRCP96Jg&utm_campaign=yelp_api_v3&utm_medium=api_v3_business_search&utm_source=y4osxHmnMD1pXQYRCP96Jg", "review_count": 82, "categories": [{"alias": "coffee", "title": "Coffee & Tea"}], "rating": 3.0, "coordinates": {"latitude": 34.1200043393384, "longitude": -118.150029}, "transactions": [], "price": "$", "location": {"address1": "454 North Fair Oaks Ave", "address2": "", "address3": "", "city": "South Pasadena", "zip_code": "91030", "country": "US", "state": "CA", "display_address": ["454 North Fair Oaks Ave", "South Pasadena, CA 91030"]}, "phone": "+16264417354", "display_phone": "(626) 441-7354", "distance": 434.8584312113972}, {"id": "rC1x4Wjum32VNL7zr7Lobw", "alias": "mike-and-annes-restaurant-south-pasadena", "name": "Mike & Anne's Restaurant", "image_url": "https://s3-media1.fl.yelpcdn.com/bphoto/lsYTvlemNKeN_fplH6dbWA/o.jpg", "is_closed": false, "url": "https://www.yelp.com/biz/mike-and-annes-restaurant-south-pasadena?adjust_creative=y4osxHmnMD1pXQYRCP96Jg&utm_campaign=yelp_api_v3&utm_medium=api_v3_business_search&utm_source=y4osxHmnMD1pXQYRCP96Jg", "review_count": 951, "categories": [{"alias": "newamerican", "title": "American (New)"}], "rating": 3.5, "coordinates": {"latitude": 34.11598, "longitude": -118.15538}, "transactions": [], "price": "$$", "location": {"address1": "1040 Mission St", "address2": "Ste 102", "address3": "", "city": "South Pasadena", "zip_code": "91030", "country": "US", "state": "CA", "display_address": ["1040 Mission St", "Ste 102", "South Pasadena, CA 91030"]}, "phone": "+16267997199", "display_phone": "(626) 799-7199", "distance": 477.86883970635057}, {"id": "Z4SpYdwWpYmRFppAHoPrag", "alias": "pavilions-south-pasadena", "name": "Pavilions", "image_url": "https://s3-media3.fl.yelpcdn.com/bphoto/kYw5lRQsW6ReVuzn096y6A/o.jpg", "is_closed": false, "url": "https://www.yelp.com/biz/pavilions-south-pasadena?adjust_creative=y4osxHmnMD1pXQYRCP96Jg&utm_campaign=yelp_api_v3&utm_medium=api_v3_business_search&utm_source=y4osxHmnMD1pXQYRCP96Jg", "review_count": 86, "categories": [{"alias": "grocery", "title": "Grocery"}, {"alias": "pharmacy", "title": "Pharmacy"}], "rating": 3.0, "coordinates": {"latitude": 34.111571, "longitude": -118.151516}, "transactions": [], "price": "$$", "location": {"address1": "1213 S Fair Oaks Ave", "address2": "", "address3": "", "city": "South Pasadena", "zip_code": "91030", "country": "US", "state": "CA", "display_address": ["1213 S Fair Oaks Ave", "South Pasadena, CA 91030"]}, "phone": "+16267992261", "display_phone": "(626) 799-2261", "distance": 515.893560691018}, {"id": "z4EOfk-_i7SM9fdKtFbqxw", "alias": "videotheque-south-pasadena", "name": "Videotheque", "image_url": "https://s3-media1.fl.yelpcdn.com/bphoto/cqCutVtvcKdiSj4w89tydw/o.jpg", "is_closed": false, "url": "https://www.yelp.com/biz/videotheque-south-pasadena?adjust_creative=y4osxHmnMD1pXQYRCP96Jg&utm_campaign=yelp_api_v3&utm_medium=api_v3_business_search&utm_source=y4osxHmnMD1pXQYRCP96Jg", "review_count": 139, "categories": [{"alias": "musicvideo", "title": "Music & DVDs"}, {"alias": "vinyl_records", "title": "Vinyl Records"}], "rating": 4.5, "coordinates": {"latitude": 34.116146, "longitude": -118.156219}, "transactions": [], "price": "$", "location": {"address1": "1020 Mission St", "address2": "Unit J", "address3": "", "city": "South Pasadena", "zip_code": "91030", "country": "US", "state": "CA", "display_address": ["1020 Mission St", "Unit J", "South Pasadena, CA 91030"]}, "phone": "+16264036621", "display_phone": "(626) 403-6621", "distance": 553.5837041739426}, {"id": "79teK6sQSjmyLIjvZsaKEQ", "alias": "chase-bank-south-pasadena-2", "name": "Chase Bank", "image_url": "https://s3-media1.fl.yelpcdn.com/bphoto/4315tNS86XzUEsQ09SFMsA/o.jpg", "is_closed": false, "url": "https://www.yelp.com/biz/chase-bank-south-pasadena-2?adjust_creative=y4osxHmnMD1pXQYRCP96Jg&utm_campaign=yelp_api_v3&utm_medium=api_v3_business_search&utm_source=y4osxHmnMD1pXQYRCP96Jg", "review_count": 17, "categories": [{"alias": "banks", "title": "Banks & Credit Unions"}], "rating": 3.0, "coordinates": {"latitude": 34.11081, "longitude": -118.150853}, "transactions": [], "location": {"address1": "1305 Fair Oaks Ave", "address2": null, "address3": null, "city": "South Pasadena", "zip_code": "91030", "country": "US", "state": "CA", "display_address": ["1305 Fair Oaks Ave", "South Pasadena, CA 91030"]}, "phone": "+16264415151", "display_phone": "(626) 441-5151", "distance": 590.4195027772446}, {"id": "zqiEbfygXFGvFV1F7nWQsw", "alias": "mission-ten-eleven-salon-south-pasadena", "name": "Mission Ten Eleven Salon", "image_url": "https://s3-media2.fl.yelpcdn.com/bphoto/ZDo3XVItzaU9Sw_6iWUexA/o.jpg", "is_closed": false, "url": "https://www.yelp.com/biz/mission-ten-eleven-salon-south-pasadena?adjust_creative=y4osxHmnMD1pXQYRCP96Jg&utm_campaign=yelp_api_v3&utm_medium=api_v3_business_search&utm_source=y4osxHmnMD1pXQYRCP96Jg", "review_count": 101, "categories": [{"alias": "hair", "title": "Hair Salons"}, {"alias": "waxing", "title": "Waxing"}, {"alias": "makeupartists", "title": "Makeup Artists"}], "rating": 4.5, "coordinates": {"latitude": 34.1156051, "longitude": -118.1566266}, "transactions": [], "price": "$$", "location": {"address1": "1011-B Mission St", "address2": "", "address3": "", "city": "South Pasadena", "zip_code": "91030", "country": "US", "state": "CA", "display_address": ["1011-B Mission St", "South Pasadena, CA 91030"]}, "phone": "+16264036652", "display_phone": "(626) 403-6652", "distance": 592.3965504991205}, {"id": "7zS_o_W3kuK51evHYodI7w", "alias": "kaldi-coffee-and-tea-south-pasadena", "name": "Kaldi Coffee and Tea", "image_url": "https://s3-media1.fl.yelpcdn.com/bphoto/YJbLPCLVYKq7TIHAkkayxg/o.jpg", "is_closed": false, "url": "https://www.yelp.com/biz/kaldi-coffee-and-tea-south-pasadena?adjust_creative=y4osxHmnMD1pXQYRCP96Jg&utm_campaign=yelp_api_v3&utm_medium=api_v3_business_search&utm_source=y4osxHmnMD1pXQYRCP96Jg", "review_count": 258, "categories": [{"alias": "coffee", "title": "Coffee & Tea"}], "rating": 3.5, "coordinates": {"latitude": 34.1145751, "longitude": -118.1565436}, "transactions": [], "price": "$", "location": {"address1": "1019 El Centro St", "address2": "", "address3": "", "city": "South Pasadena", "zip_code": "91030", "country": "US", "state": "CA", "display_address": ["1019 El Centro St", "South Pasadena, CA 91030"]}, "phone": "+16264035951", "display_phone": "(626) 403-5951", "distance": 592.6855337710658}, {"id": "JOf_7brTmT07_rBZCdHJ5w", "alias": "griffins-of-kinsale-south-pasadena", "name": "Griffins of Kinsale", "image_url": "https://s3-media4.fl.yelpcdn.com/bphoto/WrOOFewzmxL9aJwSStxXEw/o.jpg", "is_closed": false, "url": "https://www.yelp.com/biz/griffins-of-kinsale-south-pasadena?adjust_creative=y4osxHmnMD1pXQYRCP96Jg&utm_campaign=yelp_api_v3&utm_medium=api_v3_business_search&utm_source=y4osxHmnMD1pXQYRCP96Jg", "review_count": 264, "categories": [{"alias": "bars", "title": "Bars"}, {"alias": "irish", "title": "Irish"}, {"alias": "musicvenues", "title": "Music Venues"}], "rating": 4.0, "coordinates": {"latitude": 34.1156044, "longitude": -118.1566696}, "transactions": [], "price": "$$", "location": {"address1": "1007 Mission St", "address2": "", "address3": "", "city": "South Pasadena", "zip_code": "91030", "country": "US", "state": "CA", "display_address": ["1007 Mission St", "South Pasadena, CA 91030"]}, "phone": "+16267990926", "display_phone": "(626) 799-0926", "distance": 602.7586784985101}, {"id": "S4V9GesxeMh60veCFkeQlQ", "alias": "golden-oaks-apartments-south-pasadena", "name": "Golden Oaks Apartments", "image_url": "https://s3-media4.fl.yelpcdn.com/bphoto/KT0Oajuuz0jK3P7udilxeQ/o.jpg", "is_closed": false, "url": "https://www.yelp.com/biz/golden-oaks-apartments-south-pasadena?adjust_creative=y4osxHmnMD1pXQYRCP96Jg&utm_campaign=yelp_api_v3&utm_medium=api_v3_business_search&utm_source=y4osxHmnMD1pXQYRCP96Jg", "review_count": 7, "categories": [{"alias": "apartments", "title": "Apartments"}], "rating": 4.0, "coordinates": {"latitude": 34.115047454834, "longitude": -118.156677246094}, "transactions": [], "location": {"address1": "1000 El Centro St", "address2": "Apt 123", "address3": "", "city": "South Pasadena", "zip_code": "91030", "country": "US", "state": "CA", "display_address": ["1000 El Centro St", "Apt 123", "South Pasadena, CA 91030"]}, "phone": "+16267994164", "display_phone": "(626) 799-4164", "distance": 614.8030907485656}, {"id": "k9Bgtyp4rRBJhUTx-WIYdQ", "alias": "sean-j-mason-photography-south-pasadena", "name": "Sean J Mason Photography", "image_url": "https://s3-media2.fl.yelpcdn.com/bphoto/YOMaP0WPeKIYh-HI9GNaxQ/o.jpg", "is_closed": false, "url": "https://www.yelp.com/biz/sean-j-mason-photography-south-pasadena?adjust_creative=y4osxHmnMD1pXQYRCP96Jg&utm_campaign=yelp_api_v3&utm_medium=api_v3_business_search&utm_source=y4osxHmnMD1pXQYRCP96Jg", "review_count": 9, "categories": [{"alias": "photographers", "title": "Photographers"}], "rating": 5.0, "coordinates": {"latitude": 34.11615, "longitude": -118.15747}, "transactions": [], "location": {"address1": "803 Meridian Ave", "address2": "", "address3": "", "city": "South Pasadena", "zip_code": "91030", "country": "US", "state": "CA", "display_address": ["803 Meridian Ave", "South Pasadena, CA 91030"]}, "phone": "+16263292557", "display_phone": "(626) 329-2557", "distance": 652.7738104910835}, {"id": "S3qw5NEwaslJFeUzB9SLSw", "alias": "hi-life-burgers-south-pasadena", "name": "Hi Life Burgers", "image_url": "https://s3-media2.fl.yelpcdn.com/bphoto/zE7_d5YSXKo_q1lqGIE9-Q/o.jpg", "is_closed": false, "url": "https://www.yelp.com/biz/hi-life-burgers-south-pasadena?adjust_creative=y4osxHmnMD1pXQYRCP96Jg&utm_campaign=yelp_api_v3&utm_medium=api_v3_business_search&utm_source=y4osxHmnMD1pXQYRCP96Jg", "review_count": 350, "categories": [{"alias": "burgers", "title": "Burgers"}, {"alias": "hotdogs", "title": "Fast Food"}], "rating": 3.5, "coordinates": {"latitude": 34.11015, "longitude": -118.14995}, "transactions": [], "price": "$", "location": {"address1": "1326 Fair Oaks Ave", "address2": null, "address3": "", "city": "South Pasadena", "zip_code": "91030", "country": "US", "state": "CA", "display_address": ["1326 Fair Oaks Ave", "South Pasadena, CA 91030"]}, "phone": "+16267995401", "display_phone": "(626) 799-5401", "distance": 665.2170618685217}, {"id": "-uwckFeauXCqsbjgmyeIdw", "alias": "thistle-plumbing-south-pasadena-3", "name": "Thistle Plumbing", "image_url": "https://s3-media1.fl.yelpcdn.com/bphoto/r8NR8w0UUIt2uWrsSpFiCQ/o.jpg", "is_closed": false, "url": "https://www.yelp.com/biz/thistle-plumbing-south-pasadena-3?adjust_creative=y4osxHmnMD1pXQYRCP96Jg&utm_campaign=yelp_api_v3&utm_medium=api_v3_business_search&utm_source=y4osxHmnMD1pXQYRCP96Jg", "review_count": 63, "categories": [{"alias": "plumbing", "title": "Plumbing"}, {"alias": "hydrojetting", "title": "Hydro-jetting"}], "rating": 5.0, "coordinates": {"latitude": 34.1229, "longitude": -118.15195}, "transactions": [], "location": {"address1": "287 Grace Dr", "address2": null, "address3": null, "city": "South Pasadena", "zip_code": "91030", "country": "US", "state": "CA", "display_address": ["287 Grace Dr", "South Pasadena, CA 91030"]}, "phone": "+16266169353", "display_phone": "(626) 616-9353", "distance": 772.4694891385017}, {"id": "c5uSyEbtJ3OTssfevH_X2g", "alias": "womans-club-of-south-pasadena-south-pasadena", "name": "Woman's Club of South Pasadena", "image_url": "https://s3-media2.fl.yelpcdn.com/bphoto/iUEWx1uv5wF1yS2DVz-R0Q/o.jpg", "is_closed": false, "url": "https://www.yelp.com/biz/womans-club-of-south-pasadena-south-pasadena?adjust_creative=y4osxHmnMD1pXQYRCP96Jg&utm_campaign=yelp_api_v3&utm_medium=api_v3_business_search&utm_source=y4osxHmnMD1pXQYRCP96Jg", "review_count": 5, "categories": [{"alias": "danceclubs", "title": "Dance Clubs"}], "rating": 4.0, "coordinates": {"latitude": 34.1090126037598, "longitude": -118.152801513672}, "transactions": [], "price": "$", "location": {"address1": "1424 Fremont Ave", "address2": "", "address3": "", "city": "South Pasadena", "zip_code": "91030", "country": "US", "state": "CA", "display_address": ["1424 Fremont Ave", "South Pasadena, CA 91030"]}, "phone": "+16267999309", "display_phone": "(626) 799-9309", "distance": 821.5068610868191}, {"id": "-8Fc8gf-AIJhi2fFnwWSrQ", "alias": "se\u00f1or-fish-south-pasadena-2", "name": "Se\u00f1or Fish", "image_url": "https://s3-media4.fl.yelpcdn.com/bphoto/YGXYzXbG6Mvii-rKs82XmA/o.jpg", "is_closed": false, "url": "https://www.yelp.com/biz/se%C3%B1or-fish-south-pasadena-2?adjust_creative=y4osxHmnMD1pXQYRCP96Jg&utm_campaign=yelp_api_v3&utm_medium=api_v3_business_search&utm_source=y4osxHmnMD1pXQYRCP96Jg", "review_count": 345, "categories": [{"alias": "mexican", "title": "Mexican"}, {"alias": "seafood", "title": "Seafood"}, {"alias": "bars", "title": "Bars"}], "rating": 3.0, "coordinates": {"latitude": 34.1158449, "longitude": -118.1627385}, "transactions": [], "price": "$", "location": {"address1": "618 Mission St", "address2": "", "address3": "", "city": "South Pasadena", "zip_code": "91030", "country": "US", "state": "CA", "display_address": ["618 Mission St", "South Pasadena, CA 91030"]}, "phone": "+16264030145", "display_phone": "(626) 403-0145", "distance": 1155.295215799132}, {"id": "zPa7UtrcA1nKbMdqD-qT-w", "alias": "trader-joes-south-pasadena-3", "name": "Trader Joe's", "image_url": "https://s3-media1.fl.yelpcdn.com/bphoto/oyHOQ1_twhn-7dVy258SSw/o.jpg", "is_closed": false, "url": "https://www.yelp.com/biz/trader-joes-south-pasadena-3?adjust_creative=y4osxHmnMD1pXQYRCP96Jg&utm_campaign=yelp_api_v3&utm_medium=api_v3_business_search&utm_source=y4osxHmnMD1pXQYRCP96Jg", "review_count": 216, "categories": [{"alias": "grocery", "title": "Grocery"}], "rating": 3.5, "coordinates": {"latitude": 34.11538, "longitude": -118.16291}, "transactions": [], "price": "$$", "location": {"address1": "613 Mission St", "address2": "", "address3": "", "city": "South Pasadena", "zip_code": "91030", "country": "US", "state": "CA", "display_address": ["613 Mission St", "South Pasadena, CA 91030"]}, "phone": "+16264416263", "display_phone": "(626) 441-6263", "distance": 1170.0163117063587}, {"id": "fficWjF_AbXSCrnVHBu6HQ", "alias": "spotted-hen-catering-los-angeles", "name": "Spotted Hen Catering", "image_url": "https://s3-media2.fl.yelpcdn.com/bphoto/PBBiFvY-z0z5i0xZ0aMmow/o.jpg", "is_closed": false, "url": "https://www.yelp.com/biz/spotted-hen-catering-los-angeles?adjust_creative=y4osxHmnMD1pXQYRCP96Jg&utm_campaign=yelp_api_v3&utm_medium=api_v3_business_search&utm_source=y4osxHmnMD1pXQYRCP96Jg", "review_count": 17, "categories": [{"alias": "catering", "title": "Caterers"}, {"alias": "bakeries", "title": "Bakeries"}, {"alias": "cookingclasses", "title": "Cooking Classes"}], "rating": 5.0, "coordinates": {"latitude": 34.11216, "longitude": -118.15807}, "transactions": [], "location": {"address1": "", "address2": "", "address3": null, "city": "Los Angeles", "zip_code": "91030", "country": "US", "state": "CA", "display_address": ["Los Angeles, CA 91030"]}, "phone": "+13232550800", "display_phone": "(323) 255-0800", "distance": 1173.6036978041047}, {"id": "S1ukQlvFGHLuEuDbd2XwfA", "alias": "gifted-hands-therapeutic-wellness-center-south-pasadena", "name": "Gifted Hands Therapeutic Wellness Center", "image_url": "https://s3-media3.fl.yelpcdn.com/bphoto/JNM2pVSnBTkezyC9FdgDbA/o.jpg", "is_closed": false, "url": "https://www.yelp.com/biz/gifted-hands-therapeutic-wellness-center-south-pasadena?adjust_creative=y4osxHmnMD1pXQYRCP96Jg&utm_campaign=yelp_api_v3&utm_medium=api_v3_business_search&utm_source=y4osxHmnMD1pXQYRCP96Jg", "review_count": 42, "categories": [{"alias": "massage", "title": "Massage"}], "rating": 3.5, "coordinates": {"latitude": 34.10458, "longitude": -118.15145}, "transactions": [], "price": "$$", "location": {"address1": "1502 Huntington Dr", "address2": "Ste A", "address3": "", "city": "South Pasadena", "zip_code": "91030", "country": "US", "state": "CA", "display_address": ["1502 Huntington Dr", "Ste A", "South Pasadena, CA 91030"]}, "phone": "+16264411001", "display_phone": "(626) 441-1001", "distance": 1292.2503435956478}, {"id": "K-kBkgPgIghFH-dczaFihw", "alias": "mds-florist-south-pasadena", "name": "MD's Florist", "image_url": "https://s3-media1.fl.yelpcdn.com/bphoto/juzMDFAh7ofx0CQGmorybg/o.jpg", "is_closed": false, "url": "https://www.yelp.com/biz/mds-florist-south-pasadena?adjust_creative=y4osxHmnMD1pXQYRCP96Jg&utm_campaign=yelp_api_v3&utm_medium=api_v3_business_search&utm_source=y4osxHmnMD1pXQYRCP96Jg", "review_count": 61, "categories": [{"alias": "florists", "title": "Florists"}, {"alias": "floraldesigners", "title": "Floral Designers"}], "rating": 5.0, "coordinates": {"latitude": 34.1043079581752, "longitude": -118.150509340868}, "transactions": [], "location": {"address1": null, "address2": null, "address3": "", "city": "South Pasadena", "zip_code": "91030", "country": "US", "state": "CA", "display_address": ["South Pasadena, CA 91030"]}, "phone": "+16264035699", "display_phone": "(626) 403-5699", "distance": 1311.3554060019628}, {"id": "jOGUH68acGGP1JHxyDkaqw", "alias": "enrique-arevalo-south-pasadena", "name": "Enrique Arevalo", "image_url": "https://s3-media2.fl.yelpcdn.com/bphoto/OtabugkfrkHEjPzMJ68-Yg/o.jpg", "is_closed": false, "url": "https://www.yelp.com/biz/enrique-arevalo-south-pasadena?adjust_creative=y4osxHmnMD1pXQYRCP96Jg&utm_campaign=yelp_api_v3&utm_medium=api_v3_business_search&utm_source=y4osxHmnMD1pXQYRCP96Jg", "review_count": 9, "categories": [{"alias": "immigrationlawyers", "title": "Immigration Law"}], "rating": 1.5, "coordinates": {"latitude": 34.11537, "longitude": -118.16484}, "transactions": [], "location": {"address1": "505 Mission St", "address2": null, "address3": null, "city": "South Pasadena", "zip_code": "91030", "country": "US", "state": "CA", "display_address": ["505 Mission St", "South Pasadena, CA 91030"]}, "phone": "+16267996585", "display_phone": "(626) 799-6585", "distance": 1344.4452088256746}, {"id": "q8OSl-GdjhFf8Qx9aVxNtw", "alias": "t-mobile-south-pasadena-2", "name": "T-Mobile", "image_url": "https://s3-media2.fl.yelpcdn.com/bphoto/mPOt4sxAMTQcPbnSnIYyKg/o.jpg", "is_closed": false, "url": "https://www.yelp.com/biz/t-mobile-south-pasadena-2?adjust_creative=y4osxHmnMD1pXQYRCP96Jg&utm_campaign=yelp_api_v3&utm_medium=api_v3_business_search&utm_source=y4osxHmnMD1pXQYRCP96Jg", "review_count": 61, "categories": [{"alias": "mobilephones", "title": "Mobile Phones"}], "rating": 2.5, "coordinates": {"latitude": 34.1041545659735, "longitude": -118.152939900756}, "transactions": [], "price": "$$", "location": {"address1": "1318 Huntington Dr", "address2": "Ste B", "address3": null, "city": "South Pasadena", "zip_code": "91030", "country": "US", "state": "CA", "display_address": ["1318 Huntington Dr", "Ste B", "South Pasadena, CA 91030"]}, "phone": "+13232562789", "display_phone": "(323) 256-2789", "distance": 1350.3226688578218}, {"id": "-IFXfYztAlHez7T7WwAI5Q", "alias": "starbucks-south-pasadena-4", "name": "Starbucks", "image_url": "https://s3-media3.fl.yelpcdn.com/bphoto/sRsCygpiPIgFH-9-uqEPng/o.jpg", "is_closed": false, "url": "https://www.yelp.com/biz/starbucks-south-pasadena-4?adjust_creative=y4osxHmnMD1pXQYRCP96Jg&utm_campaign=yelp_api_v3&utm_medium=api_v3_business_search&utm_source=y4osxHmnMD1pXQYRCP96Jg", "review_count": 97, "categories": [{"alias": "coffee", "title": "Coffee & Tea"}], "rating": 3.5, "coordinates": {"latitude": 34.104135, "longitude": -118.152999}, "transactions": [], "price": "$", "location": {"address1": "1318 Huntington Drive", "address2": "", "address3": "", "city": "South Pasadena", "zip_code": "91030", "country": "US", "state": "CA", "display_address": ["1318 Huntington Drive", "South Pasadena, CA 91030"]}, "phone": "+13232551684", "display_phone": "(323) 255-1684", "distance": 1353.4511799583943}, {"id": "HMz8G0cmgaJ3ftOLDHGShQ", "alias": "harmon-wong-and-im-south-pasadena", "name": "Harmon, Wong & Im", "image_url": "", "is_closed": false, "url": "https://www.yelp.com/biz/harmon-wong-and-im-south-pasadena?adjust_creative=y4osxHmnMD1pXQYRCP96Jg&utm_campaign=yelp_api_v3&utm_medium=api_v3_business_search&utm_source=y4osxHmnMD1pXQYRCP96Jg", "review_count": 1, "categories": [{"alias": "accountants", "title": "Accountants"}], "rating": 5.0, "coordinates": {"latitude": 34.103683, "longitude": -118.150466}, "transactions": [], "location": {"address1": "1499 Huntington Dr", "address2": "Ste 200", "address3": "", "city": "South Pasadena", "zip_code": "91030", "country": "US", "state": "CA", "display_address": ["1499 Huntington Dr", "Ste 200", "South Pasadena, CA 91030"]}, "phone": "+16264039911", "display_phone": "(626) 403-9911", "distance": 1366.0937773092744}, {"id": "Ds1TTCbEtU91FSRE2fiNdQ", "alias": "ted-a-moreno-c-ht-los-angeles-2", "name": "Ted A Moreno, C.Ht", "image_url": "https://s3-media1.fl.yelpcdn.com/bphoto/ypXdXUn-hmUhfcPZbIAQug/o.jpg", "is_closed": false, "url": "https://www.yelp.com/biz/ted-a-moreno-c-ht-los-angeles-2?adjust_creative=y4osxHmnMD1pXQYRCP96Jg&utm_campaign=yelp_api_v3&utm_medium=api_v3_business_search&utm_source=y4osxHmnMD1pXQYRCP96Jg", "review_count": 6, "categories": [{"alias": "lifecoach", "title": "Life Coach"}, {"alias": "hypnosis", "title": "Hypnosis/Hypnotherapy"}], "rating": 5.0, "coordinates": {"latitude": 34.1046104, "longitude": -118.1437302}, "transactions": [], "location": {"address1": "1910 Huntington Dr", "address2": "Ste 9", "address3": "", "city": "Los Angeles", "zip_code": "91030", "country": "US", "state": "CA", "display_address": ["1910 Huntington Dr", "Ste 9", "Los Angeles, CA 91030"]}, "phone": "+16268260612", "display_phone": "(626) 826-0612", "distance": 1404.8915566697428}, {"id": "2r6wPU_ZPXIGIWr8daxLeA", "alias": "oneonta-cooperative-nursery-school-south-pasadena", "name": "Oneonta Cooperative Nursery School", "image_url": "https://s3-media3.fl.yelpcdn.com/bphoto/epPrUlMjKfTXYp8LaXlXqg/o.jpg", "is_closed": false, "url": "https://www.yelp.com/biz/oneonta-cooperative-nursery-school-south-pasadena?adjust_creative=y4osxHmnMD1pXQYRCP96Jg&utm_campaign=yelp_api_v3&utm_medium=api_v3_business_search&utm_source=y4osxHmnMD1pXQYRCP96Jg", "review_count": 38, "categories": [{"alias": "preschools", "title": "Preschools"}], "rating": 4.5, "coordinates": {"latitude": 34.108292, "longitude": -118.137747}, "transactions": [], "location": {"address1": "1515 Garfield Ave", "address2": "", "address3": "", "city": "South Pasadena", "zip_code": "91030", "country": "US", "state": "CA", "display_address": ["1515 Garfield Ave", "South Pasadena, CA 91030"]}, "phone": "+16267993105", "display_phone": "(626) 799-3105", "distance": 1445.4566871731445}, {"id": "UQJUl9p_QUtrMFOZnhquuQ", "alias": "sun-kap-enterprises-south-pasadena", "name": "Sun-Kap Enterprises", "image_url": "https://s3-media3.fl.yelpcdn.com/bphoto/GOCi5OS0x5rOiPTqH6nezg/o.jpg", "is_closed": false, "url": "https://www.yelp.com/biz/sun-kap-enterprises-south-pasadena?adjust_creative=y4osxHmnMD1pXQYRCP96Jg&utm_campaign=yelp_api_v3&utm_medium=api_v3_business_search&utm_source=y4osxHmnMD1pXQYRCP96Jg", "review_count": 12, "categories": [{"alias": "taxservices", "title": "Tax Services"}], "rating": 4.0, "coordinates": {"latitude": 34.1034355163574, "longitude": -118.154457092285}, "transactions": [], "location": {"address1": "1260 Huntington Dr", "address2": "Ste 205", "address3": "", "city": "South Pasadena", "zip_code": "91030", "country": "US", "state": "CA", "display_address": ["1260 Huntington Dr", "Ste 205", "South Pasadena, CA 91030"]}, "phone": "+13232542729", "display_phone": "(323) 254-2729", "distance": 1456.356763571164}, {"id": "toW5uDG44ssjV9F21xzULQ", "alias": "huntington-catering-south-pasadena", "name": "Huntington Catering", "image_url": "https://s3-media4.fl.yelpcdn.com/bphoto/W5nHtRKo6F6nV8tWJs74Ww/o.jpg", "is_closed": false, "url": "https://www.yelp.com/biz/huntington-catering-south-pasadena?adjust_creative=y4osxHmnMD1pXQYRCP96Jg&utm_campaign=yelp_api_v3&utm_medium=api_v3_business_search&utm_source=y4osxHmnMD1pXQYRCP96Jg", "review_count": 82, "categories": [{"alias": "catering", "title": "Caterers"}], "rating": 4.5, "coordinates": {"latitude": 34.1039572, "longitude": -118.1427493}, "transactions": [], "location": {"address1": "1929 Huntington Dr", "address2": "", "address3": "", "city": "South Pasadena", "zip_code": "91030", "country": "US", "state": "CA", "display_address": ["1929 Huntington Dr", "South Pasadena, CA 91030"]}, "phone": "+16267954200", "display_phone": "(626) 795-4200", "distance": 1518.6591656432342}, {"id": "s9HncjoBd8PWfKM2NBX2KA", "alias": "rasta-taco-south-pasadena", "name": "Rasta Taco", "image_url": "https://s3-media1.fl.yelpcdn.com/bphoto/H78gaLBctKuoH2PMsAOIbQ/o.jpg", "is_closed": false, "url": "https://www.yelp.com/biz/rasta-taco-south-pasadena?adjust_creative=y4osxHmnMD1pXQYRCP96Jg&utm_campaign=yelp_api_v3&utm_medium=api_v3_business_search&utm_source=y4osxHmnMD1pXQYRCP96Jg", "review_count": 41, "categories": [{"alias": "catering", "title": "Caterers"}], "rating": 4.0, "coordinates": {"latitude": 34.1039851, "longitude": -118.1426814}, "transactions": [], "location": {"address1": "1929 Huntington Dr", "address2": "", "address3": "", "city": "South Pasadena", "zip_code": "91030", "country": "US", "state": "CA", "display_address": ["1929 Huntington Dr", "South Pasadena, CA 91030"]}, "phone": "+18669672782", "display_phone": "(866) 967-2782", "distance": 1518.6591656432342}, {"id": "wMRjcZLPTuu3ogM13OtZJQ", "alias": "simply-elegant-catering-south-pasadena", "name": "Simply Elegant Catering", "image_url": "https://s3-media4.fl.yelpcdn.com/bphoto/e2I_vxsYzFA0p8KkZaPjqg/o.jpg", "is_closed": false, "url": "https://www.yelp.com/biz/simply-elegant-catering-south-pasadena?adjust_creative=y4osxHmnMD1pXQYRCP96Jg&utm_campaign=yelp_api_v3&utm_medium=api_v3_business_search&utm_source=y4osxHmnMD1pXQYRCP96Jg", "review_count": 37, "categories": [{"alias": "catering", "title": "Caterers"}], "rating": 4.5, "coordinates": {"latitude": 34.1039851, "longitude": -118.1426814}, "transactions": [], "location": {"address1": "1929 Huntington Dr", "address2": null, "address3": "", "city": "South Pasadena", "zip_code": "91030", "country": "US", "state": "CA", "display_address": ["1929 Huntington Dr", "South Pasadena, CA 91030"]}, "phone": "+16267996468", "display_phone": "(626) 799-6468", "distance": 1518.6591656432342}, {"id": "UHezd4zhOWux9mhSHvNjxg", "alias": "henson-and-company-cpas-south-pasadena", "name": "Henson & Company CPA's", "image_url": "https://s3-media2.fl.yelpcdn.com/bphoto/6nZJqJx10KA0EKdqmwZZfQ/o.jpg", "is_closed": false, "url": "https://www.yelp.com/biz/henson-and-company-cpas-south-pasadena?adjust_creative=y4osxHmnMD1pXQYRCP96Jg&utm_campaign=yelp_api_v3&utm_medium=api_v3_business_search&utm_source=y4osxHmnMD1pXQYRCP96Jg", "review_count": 5, "categories": [{"alias": "accountants", "title": "Accountants"}, {"alias": "taxservices", "title": "Tax Services"}, {"alias": "payroll", "title": "Payroll Services"}], "rating": 5.0, "coordinates": {"latitude": 34.104701, "longitude": -118.13742}, "transactions": [], "location": {"address1": "2045 Huntington Dr", "address2": "", "address3": "", "city": "South Pasadena", "zip_code": "91030", "country": "US", "state": "CA", "display_address": ["2045 Huntington Dr", "South Pasadena, CA 91030"]}, "phone": "+16264034410", "display_phone": "(626) 403-4410", "distance": 1725.4351394345492}, {"id": "VL7GxwNmoORvBnrKvmPzBQ", "alias": "charlies-coffee-house-south-pasadena", "name": "Charlie's Coffee House", "image_url": "https://s3-media1.fl.yelpcdn.com/bphoto/nsrB031lQVQlUUYg53Eyng/o.jpg", "is_closed": false, "url": "https://www.yelp.com/biz/charlies-coffee-house-south-pasadena?adjust_creative=y4osxHmnMD1pXQYRCP96Jg&utm_campaign=yelp_api_v3&utm_medium=api_v3_business_search&utm_source=y4osxHmnMD1pXQYRCP96Jg", "review_count": 302, "categories": [{"alias": "coffee", "title": "Coffee & Tea"}], "rating": 4.5, "coordinates": {"latitude": 34.1117, "longitude": -118.17036}, "transactions": [], "price": "$", "location": {"address1": "266 Monterey Rd", "address2": "Ste A", "address3": "", "city": "South Pasadena", "zip_code": "91030", "country": "US", "state": "CA", "display_address": ["266 Monterey Rd", "Ste A", "South Pasadena, CA 91030"]}, "phone": "+13234746753", "display_phone": "(323) 474-6753", "distance": 1897.1101887471916}, {"id": "cyIgBCBEEa6I4Op3PWACbQ", "alias": "dms-facility-services-south-pasadena", "name": "DMS Facility Services", "image_url": "https://s3-media3.fl.yelpcdn.com/bphoto/4399SJp18sIupd_MHykWUA/o.jpg", "is_closed": false, "url": "https://www.yelp.com/biz/dms-facility-services-south-pasadena?adjust_creative=y4osxHmnMD1pXQYRCP96Jg&utm_campaign=yelp_api_v3&utm_medium=api_v3_business_search&utm_source=y4osxHmnMD1pXQYRCP96Jg", "review_count": 1, "categories": [{"alias": "landscaping", "title": "Landscaping"}, {"alias": "windowwashing", "title": "Window Washing"}, {"alias": "metalfabricators", "title": "Metal Fabricators"}], "rating": 5.0, "coordinates": {"latitude": 34.11289, "longitude": -118.17054}, "transactions": [], "location": {"address1": "1040 Arroyo Dr", "address2": null, "address3": null, "city": "South Pasadena", "zip_code": "91030", "country": "US", "state": "CA", "display_address": ["1040 Arroyo Dr", "South Pasadena, CA 91030"]}, "phone": "+16263058500", "display_phone": "(626) 305-8500", "distance": 1898.73639203959}, {"id": "ljC72kWJHkWk4xatNeRblg", "alias": "ostrich-farm-studio-south-pasadena", "name": "Ostrich Farm Studio", "image_url": "https://s3-media2.fl.yelpcdn.com/bphoto/7vA1R86z4F6uIasEtw9jUA/o.jpg", "is_closed": false, "url": "https://www.yelp.com/biz/ostrich-farm-studio-south-pasadena?adjust_creative=y4osxHmnMD1pXQYRCP96Jg&utm_campaign=yelp_api_v3&utm_medium=api_v3_business_search&utm_source=y4osxHmnMD1pXQYRCP96Jg", "review_count": 23, "categories": [{"alias": "videofilmproductions", "title": "Video/Film Production"}, {"alias": "sessionphotography", "title": "Session Photography"}, {"alias": "recording_studios", "title": "Recording & Rehearsal Studios"}], "rating": 5.0, "coordinates": {"latitude": 34.111345, "longitude": -118.174863}, "transactions": [], "location": {"address1": "1010 Sycamore Ave", "address2": "Ste 107", "address3": "", "city": "South Pasadena", "zip_code": "91030", "country": "US", "state": "CA", "display_address": ["1010 Sycamore Ave", "Ste 107", "South Pasadena, CA 91030"]}, "phone": "+13237396506", "display_phone": "(323) 739-6506", "distance": 2322.2870051109917}, {"id": "O0vkwuh0OhkqyHmr4ElUWQ", "alias": "smart-remodeling-alhambra-3", "name": "Smart Remodeling", "image_url": "https://s3-media1.fl.yelpcdn.com/bphoto/dUUcxPf-DBoDivBE8b5-SQ/o.jpg", "is_closed": false, "url": "https://www.yelp.com/biz/smart-remodeling-alhambra-3?adjust_creative=y4osxHmnMD1pXQYRCP96Jg&utm_campaign=yelp_api_v3&utm_medium=api_v3_business_search&utm_source=y4osxHmnMD1pXQYRCP96Jg", "review_count": 4, "categories": [{"alias": "handyman", "title": "Handyman"}, {"alias": "plumbing", "title": "Plumbing"}, {"alias": "kitchenandbath", "title": "Kitchen & Bath"}], "rating": 3.0, "coordinates": {"latitude": 34.080711, "longitude": -118.137715}, "transactions": [], "price": "$$$", "location": {"address1": "", "address2": "", "address3": "", "city": "Alhambra", "zip_code": "91030", "country": "US", "state": "CA", "display_address": ["Alhambra, CA 91030"]}, "phone": "+16268332833", "display_phone": "(626) 833-2833", "distance": 4102.147272242112}]