[{"id": "jYGr-0ZoKgFC8Xpc_oBmvA", "alias": "626drift-south-pasadena", "name": "626Drift", "image_url": "https://s3-media4.fl.yelpcdn.com/bphoto/kFF8Z9zxqx5vzM-u2vnOhg/o.jpg", "is_closed": false, "url": "https://www.yelp.com/biz/626drift-south-pasadena?adjust_creative=y4osxHmnMD1pXQYRCP96Jg&utm_campaign=yelp_api_v3&utm_medium=api_v3_business_search&utm_source=y4osxHmnMD1pXQYRCP96Jg", "review_count": 1, "categories": [{"alias": "carrental", "title": "Car Rental"}], "rating": 5.0, "coordinates": {"latitude": 34.11738, "longitude": -118.15083}, "transactions": [], "location": {"address1": "", "address2": "", "address3": "", "city": "South Pasadena", "zip_code": "91030", "country": "US", "state": "CA", "display_address": ["South Pasadena, CA 91030"]}, "phone": "+16263447501", "display_phone": "(626) 344-7501", "distance": 4.993195600113268}, {"id": "fUSDKHeCVaXY3FhI0YCs9Q", "alias": "fair-oaks-pharmacy-and-soda-fountain-south-pasadena", "name": "Fair Oaks Pharmacy and Soda Fountain", "image_url": "https://s3-media3.fl.yelpcdn.com/bphoto/mQsYXz6UmrSy7tzvuYMy4g/o.jpg", "is_closed": false, "url": "https://www.yelp.com/biz/fair-oaks-pharmacy-and-soda-fountain-south-pasadena?adjust_creative=y4osxHmnMD1pXQYRCP96Jg&utm_campaign=yelp_api_v3&utm_medium=api_v3_business_search&utm_source=y4osxHmnMD1pXQYRCP96Jg", "review_count": 759, "categories": [{"alias": "drugstores", "title": "Drugstores"}, {"alias": "icecream", "title": "Ice Cream & Frozen Yogurt"}, {"alias": "burgers", "title": "Burgers"}], "rating": 3.5, "coordinates": {"latitude": 34.1160468883484, "longitude": -118.150555101816}, "transactions": [], "price": "$$", "location": {"address1": "1526 Mission St", "address2": "", "address3": "", "city": "South Pasadena", "zip_code": "91030", "country": "US", "state": "CA", "display_address": ["1526 Mission St", "South Pasadena, CA 91030"]}, "phone": "+16267991414", "display_phone": "(626) 799-1414", "distance": 24.215487367701314}, {"id": "O_QTrjoniV4_wJA_6865hQ", "alias": "canoe-house-south-pasadena", "name": "Canoe House", "image_url": "https://s3-media3.fl.yelpcdn.com/bphoto/KOcBLwuOzrN9UEdNL3U72g/o.jpg", "is_closed": false, "url": "https://www.yelp.com/biz/canoe-house-south-pasadena?adjust_creative=y4osxHmnMD1pXQYRCP96Jg&utm_campaign=yelp_api_v3&utm_medium=api_v3_business_search&utm_source=y4osxHmnMD1pXQYRCP96Jg", "review_count": 681, "categories": [{"alias": "hawaiian", "title": "Hawaiian"}, {"alias": "sportsbars", "title": "Sports Bars"}, {"alias": "breakfast_brunch", "title": "Breakfast & Brunch"}], "rating": 3.5, "coordinates": {"latitude": 34.116644, "longitude": -118.1504649}, "transactions": ["pickup"], "price": "$$", "location": {"address1": "805 Fair Oaks Ave", "address2": "", "address3": "", "city": "South Pasadena", "zip_code": "91030", "country": "US", "state": "CA", "display_address": ["805 Fair Oaks Ave", "South Pasadena, CA 91030"]}, "phone": "+16267994169", "display_phone": "(626) 799-4169", "distance": 62.86539208723283}, {"id": "SSYLP7C5tcj8KQ0V4kyewQ", "alias": "marz-south-pasadena", "name": "Marz", "image_url": "https://s3-media4.fl.yelpcdn.com/bphoto/rbpxpwLwl_Z0uit4c_uuzQ/o.jpg", "is_closed": false, "url": "https://www.yelp.com/biz/marz-south-pasadena?adjust_creative=y4osxHmnMD1pXQYRCP96Jg&utm_campaign=yelp_api_v3&utm_medium=api_v3_business_search&utm_source=y4osxHmnMD1pXQYRCP96Jg", "review_count": 31, "categories": [{"alias": "giftshops", "title": "Gift Shops"}, {"alias": "vintage", "title": "Used, Vintage & Consignment"}, {"alias": "homedecor", "title": "Home Decor"}], "rating": 4.0, "coordinates": {"latitude": 34.11615, "longitude": -118.15095}, "transactions": [], "price": "$$", "location": {"address1": "1512 Mission St", "address2": "", "address3": "", "city": "South Pasadena", "zip_code": "91030", "country": "US", "state": "CA", "display_address": ["1512 Mission St", "South Pasadena, CA 91030"]}, "phone": "+16267994032", "display_phone": "(626) 799-4032", "distance": 73.87720451456654}, {"id": "x3CBxgIhDXp3w1yUelsBvw", "alias": "linda-bortell-psy-d-south-pasadena", "name": "Linda Bortell Psy.D.", "image_url": "https://s3-media2.fl.yelpcdn.com/bphoto/pTRfAMq_-dqfQepA85zujA/o.jpg", "is_closed": false, "url": "https://www.yelp.com/biz/linda-bortell-psy-d-south-pasadena?adjust_creative=y4osxHmnMD1pXQYRCP96Jg&utm_campaign=yelp_api_v3&utm_medium=api_v3_business_search&utm_source=y4osxHmnMD1pXQYRCP96Jg", "review_count": 1, "categories": [{"alias": "c_and_mh", "title": "Counseling & Mental Health"}], "rating": 5.0, "coordinates": {"latitude": 34.1167152, "longitude": -118.1499832}, "transactions": [], "location": {"address1": "1605 Hope St", "address2": "Ste 210", "address3": "", "city": "South Pasadena", "zip_code": "91030", "country": "US", "state": "CA", "display_address": ["1605 Hope St", "Ste 210", "South Pasadena, CA 91030"]}, "phone": "+16267997941", "display_phone": "(626) 799-7941", "distance": 76.88006837069032}, {"id": "77J_MqtPnOWVxqusVaoGMw", "alias": "britta-bushnell-phd-santa-monica-2", "name": "Britta Bushnell,  PHD", "image_url": "https://s3-media1.fl.yelpcdn.com/bphoto/DG9dvEuedTiG2a7hIPLU7Q/o.jpg", "is_closed": false, "url": "https://www.yelp.com/biz/britta-bushnell-phd-santa-monica-2?adjust_creative=y4osxHmnMD1pXQYRCP96Jg&utm_campaign=yelp_api_v3&utm_medium=api_v3_business_search&utm_source=y4osxHmnMD1pXQYRCP96Jg", "review_count": 28, "categories": [{"alias": "parentingclasses", "title": "Parenting Classes"}, {"alias": "childbirthedu", "title": "Childbirth Education"}], "rating": 5.0, "coordinates": {"latitude": 34.115013, "longitude": -118.152121}, "transactions": [], "location": {"address1": "1416 El Centro St", "address2": "Ste 100", "address3": "", "city": "SANTA MONICA", "zip_code": "91030", "country": "US", "state": "CA", "display_address": ["1416 El Centro St", "Ste 100", "SANTA MONICA, CA 91030"]}, "phone": "+13107387390", "display_phone": "(310) 738-7390", "distance": 206.6695024835278}, {"id": "r1IHWTjOUcJxUT02mTe5ZQ", "alias": "bristol-farms-south-pasadena", "name": "Bristol Farms", "image_url": "https://s3-media4.fl.yelpcdn.com/bphoto/qXOskp3x0Aw2qHChlnAD9g/o.jpg", "is_closed": false, "url": "https://www.yelp.com/biz/bristol-farms-south-pasadena?adjust_creative=y4osxHmnMD1pXQYRCP96Jg&utm_campaign=yelp_api_v3&utm_medium=api_v3_business_search&utm_source=y4osxHmnMD1pXQYRCP96Jg", "review_count": 312, "categories": [{"alias": "grocery", "title": "Grocery"}, {"alias": "gourmet", "title": "Specialty Food"}, {"alias": "beer_and_wine", "title": "Beer, Wine & Spirits"}], "rating": 3.5, "coordinates": {"latitude": 34.1184448793723, "longitude": -118.14988145881}, "transactions": [], "price": "$$", "location": {"address1": "606 Fair Oaks Ave", "address2": "", "address3": "", "city": "South Pasadena", "zip_code": "91030", "country": "US", "state": "CA", "display_address": ["606 Fair Oaks Ave", "South Pasadena, CA 91030"]}, "phone": "+16264415450", "display_phone": "(626) 441-5450", "distance": 263.5698274265006}, {"id": "XcR3cxh2amhxwkZjslmm5Q", "alias": "azure-couture-invitations-and-design-south-pasadena", "name": "Azure Couture Invitations & Design", "image_url": "https://s3-media3.fl.yelpcdn.com/bphoto/D4Fzq7i8gHLjhaO1U74APA/o.jpg", "is_closed": false, "url": "https://www.yelp.com/biz/azure-couture-invitations-and-design-south-pasadena?adjust_creative=y4osxHmnMD1pXQYRCP96Jg&utm_campaign=yelp_api_v3&utm_medium=api_v3_business_search&utm_source=y4osxHmnMD1pXQYRCP96Jg", "review_count": 4, "categories": [{"alias": "stationery", "title": "Cards & Stationery"}], "rating": 5.0, "coordinates": {"latitude": 34.11447, "longitude": -118.15274}, "transactions": [], "price": "$$$$", "location": {"address1": "1000 Fremont Ave", "address2": "Ste F", "address3": "", "city": "South Pasadena", "zip_code": "91030", "country": "US", "state": "CA", "display_address": ["1000 Fremont Ave", "Ste F", "South Pasadena, CA 91030"]}, "phone": "+16265945971", "display_phone": "(626) 594-5971", "distance": 289.7398618111194}, {"id": "chD218tO8ryaVGbExD8IJw", "alias": "fiore-market-cafe-south-pasadena", "name": "Fiore Market Cafe", "image_url": "https://s3-media3.fl.yelpcdn.com/bphoto/DMQr8VSvz45vbC9qn93CDw/o.jpg", "is_closed": false, "url": "https://www.yelp.com/biz/fiore-market-cafe-south-pasadena?adjust_creative=y4osxHmnMD1pXQYRCP96Jg&utm_campaign=yelp_api_v3&utm_medium=api_v3_business_search&utm_source=y4osxHmnMD1pXQYRCP96Jg", "review_count": 769, "categories": [{"alias": "cafes", "title": "Cafes"}, {"alias": "newamerican", "title": "American (New)"}], "rating": 4.5, "coordinates": {"latitude": 34.11447, "longitude": -118.15274}, "transactions": [], "price": "$$", "location": {"address1": "1000 Fremont Ave", "address2": "", "address3": "", "city": "South Pasadena", "zip_code": "91030", "country": "US", "state": "CA", "display_address": ["1000 Fremont Ave", "South Pasadena, CA 91030"]}, "phone": "+16264412280", "display_phone": "(626) 441-2280", "distance": 289.7398618111194}, {"id": "yDQtO8vlOJxCmAHhffbP1g", "alias": "davina-kotulski-phd-south-pasadena-4", "name": "Davina Kotulski, PhD", "image_url": "https://s3-media1.fl.yelpcdn.com/bphoto/-XpyYPRqBHcg9LANlrlJhQ/o.jpg", "is_closed": false, "url": "https://www.yelp.com/biz/davina-kotulski-phd-south-pasadena-4?adjust_creative=y4osxHmnMD1pXQYRCP96Jg&utm_campaign=yelp_api_v3&utm_medium=api_v3_business_search&utm_source=y4osxHmnMD1pXQYRCP96Jg", "review_count": 11, "categories": [{"alias": "lifecoach", "title": "Life Coach"}, {"alias": "c_and_mh", "title": "Counseling & Mental Health"}], "rating": 5.0, "coordinates": {"latitude": 34.1145352, "longitude": -118.1528166}, "transactions": [], "location": {"address1": "1000 Fremont Ave", "address2": "Second Floor", "address3": "", "city": "South Pasadena", "zip_code": "91030", "country": "US", "state": "CA", "display_address": ["1000 Fremont Ave", "Second Floor", "South Pasadena, CA 91030"]}, "phone": "+16262004375", "display_phone": "(626) 200-4375", "distance": 289.7398618111194}, {"id": "isrZ__OypzADLWb4LAzPoQ", "alias": "darshana-lele-phd-south-pasadena", "name": "Darshana Lele, PhD", "image_url": "https://s3-media1.fl.yelpcdn.com/bphoto/5DXRwscBdGLdazQYX-ZayA/o.jpg", "is_closed": false, "url": "https://www.yelp.com/biz/darshana-lele-phd-south-pasadena?adjust_creative=y4osxHmnMD1pXQYRCP96Jg&utm_campaign=yelp_api_v3&utm_medium=api_v3_business_search&utm_source=y4osxHmnMD1pXQYRCP96Jg", "review_count": 2, "categories": [{"alias": "psychologists", "title": "Psychologists"}], "rating": 5.0, "coordinates": {"latitude": 34.11707, "longitude": -118.15345}, "transactions": [], "location": {"address1": "719 Fremont Ave", "address2": null, "address3": "", "city": "South Pasadena", "zip_code": "91030", "country": "US", "state": "CA", "display_address": ["719 Fremont Ave", "South Pasadena, CA 91030"]}, "phone": "+16265945353", "display_phone": "(626) 594-5353", "distance": 319.06968955679105}, {"id": "1XY5uR1lSyYJcI3_oYtx5g", "alias": "grassroots-natural-market-and-kitchen-south-pasadena", "name": "Grassroots Natural Market & Kitchen", "image_url": "https://s3-media3.fl.yelpcdn.com/bphoto/Nnvbs2t_gINlrjowuNRGaw/o.jpg", "is_closed": false, "url": "https://www.yelp.com/biz/grassroots-natural-market-and-kitchen-south-pasadena?adjust_creative=y4osxHmnMD1pXQYRCP96Jg&utm_campaign=yelp_api_v3&utm_medium=api_v3_business_search&utm_source=y4osxHmnMD1pXQYRCP96Jg", "review_count": 377, "categories": [{"alias": "gourmet", "title": "Specialty Food"}, {"alias": "grocery", "title": "Grocery"}, {"alias": "juicebars", "title": "Juice Bars & Smoothies"}], "rating": 4.5, "coordinates": {"latitude": 34.113365, "longitude": -118.151411}, "transactions": ["pickup"], "price": "$$", "location": {"address1": "1119 Fair Oaks Ave", "address2": "", "address3": "", "city": "South Pasadena", "zip_code": "91030", "country": "US", "state": "CA", "display_address": ["1119 Fair Oaks Ave", "South Pasadena, CA 91030"]}, "phone": "+16267990156", "display_phone": "(626) 799-0156", "distance": 320.8559593734072}, {"id": "UPVQcjE4QwdU5PClOFz47Q", "alias": "garfield-park-south-pasadena", "name": "Garfield Park", "image_url": "https://s3-media1.fl.yelpcdn.com/bphoto/DZsTlOCkBhujqt-5yxWf3Q/o.jpg", "is_closed": false, "url": "https://www.yelp.com/biz/garfield-park-south-pasadena?adjust_creative=y4osxHmnMD1pXQYRCP96Jg&utm_campaign=yelp_api_v3&utm_medium=api_v3_business_search&utm_source=y4osxHmnMD1pXQYRCP96Jg", "review_count": 70, "categories": [{"alias": "tennis", "title": "Tennis"}, {"alias": "parks", "title": "Parks"}, {"alias": "playgrounds", "title": "Playgrounds"}], "rating": 4.5, "coordinates": {"latitude": 34.116831246425, "longitude": -118.146645616394}, "transactions": [], "location": {"address1": "1000 Park Ave", "address2": "", "address3": "", "city": "South Pasadena", "zip_code": "91030", "country": "US", "state": "CA", "display_address": ["1000 Park Ave", "South Pasadena, CA 91030"]}, "phone": "+16264037380", "display_phone": "(626) 403-7380", "distance": 346.10240993456216}, {"id": "N8hsM-z2tGLgO43MX_S8YQ", "alias": "santa-fe-crafts-south-pasadena-5", "name": "Santa Fe Crafts", "image_url": "https://s3-media4.fl.yelpcdn.com/bphoto/rFx-KX4ac9QPVlZhb1AfuQ/o.jpg", "is_closed": false, "url": "https://www.yelp.com/biz/santa-fe-crafts-south-pasadena-5?adjust_creative=y4osxHmnMD1pXQYRCP96Jg&utm_campaign=yelp_api_v3&utm_medium=api_v3_business_search&utm_source=y4osxHmnMD1pXQYRCP96Jg", "review_count": 1, "categories": [{"alias": "jewelry", "title": "Jewelry"}, {"alias": "galleries", "title": "Art Galleries"}, {"alias": "artsandcrafts", "title": "Arts & Crafts"}], "rating": 1.0, "coordinates": {"latitude": 34.1156227, "longitude": -118.1541342}, "transactions": [], "location": {"address1": "1123 Mission St", "address2": null, "address3": null, "city": "South Pasadena", "zip_code": "91030", "country": "US", "state": "CA", "display_address": ["1123 Mission St", "South Pasadena, CA 91030"]}, "phone": "+16267993070", "display_phone": "(626) 799-3070", "distance": 356.93942194389996}, {"id": "sGISOvwpSfHLYbhwg01YDA", "alias": "old-focals-optical-south-pasadena", "name": "Old Focals Optical", "image_url": "https://s3-media4.fl.yelpcdn.com/bphoto/EfPuPHxWfystFcxGjT-xiA/o.jpg", "is_closed": false, "url": "https://www.yelp.com/biz/old-focals-optical-south-pasadena?adjust_creative=y4osxHmnMD1pXQYRCP96Jg&utm_campaign=yelp_api_v3&utm_medium=api_v3_business_search&utm_source=y4osxHmnMD1pXQYRCP96Jg", "review_count": 16, "categories": [{"alias": "opticians", "title": "Eyewear & Opticians"}], "rating": 5.0, "coordinates": {"latitude": 34.11606, "longitude": -118.15459}, "transactions": [], "price": "$$$", "location": {"address1": "1110 Mission St", "address2": null, "address3": "", "city": "South Pasadena", "zip_code": "91030", "country": "US", "state": "CA", "display_address": ["1110 Mission St", "South Pasadena, CA 91030"]}, "phone": "+16267997073", "display_phone": "(626) 799-7073", "distance": 398.0824903426567}, {"id": "1JWdhVNai7Fkl5A3uamrOw", "alias": "tinzee-nail-salon-south-pasadena", "name": "Tinzee Nail Salon", "image_url": "https://s3-media1.fl.yelpcdn.com/bphoto/5BrRN3JcgGrPYFCs2N17Mw/o.jpg", "is_closed": false, "url": "https://www.yelp.com/biz/tinzee-nail-salon-south-pasadena?adjust_creative=y4osxHmnMD1pXQYRCP96Jg&utm_campaign=yelp_api_v3&utm_medium=api_v3_business_search&utm_source=y4osxHmnMD1pXQYRCP96Jg", "review_count": 89, "categories": [{"alias": "othersalons", "title": "Nail Salons"}], "rating": 3.0, "coordinates": {"latitude": 34.1204805, "longitude": -118.1501651}, "transactions": [], "price": "$$$", "location": {"address1": "436 Fair Oaks Ave", "address2": "", "address3": "", "city": "South Pasadena", "zip_code": "91030", "country": "US", "state": "CA", "display_address": ["436 Fair Oaks Ave", "South Pasadena, CA 91030"]}, "phone": "+16264033311", "display_phone": "(626) 403-3311", "distance": 485.26479724959444}, {"id": "-hTyELalW1Bnt6Fm22fPPw", "alias": "south-pasadena-unified-school-district-south-pasadena", "name": "South Pasadena Unified School District", "image_url": "https://s3-media2.fl.yelpcdn.com/bphoto/X5ArutmMzcusJ9SLQYjRXw/o.jpg", "is_closed": false, "url": "https://www.yelp.com/biz/south-pasadena-unified-school-district-south-pasadena?adjust_creative=y4osxHmnMD1pXQYRCP96Jg&utm_campaign=yelp_api_v3&utm_medium=api_v3_business_search&utm_source=y4osxHmnMD1pXQYRCP96Jg", "review_count": 5, "categories": [{"alias": "highschools", "title": "Middle Schools & High Schools"}, {"alias": "elementaryschools", "title": "Elementary Schools"}], "rating": 2.5, "coordinates": {"latitude": 34.1148549, "longitude": -118.1560517}, "transactions": [], "location": {"address1": "1020 El Centro St", "address2": "", "address3": "", "city": "South Pasadena", "zip_code": "91030", "country": "US", "state": "CA", "display_address": ["1020 El Centro St", "South Pasadena, CA 91030"]}, "phone": "+16264415810", "display_phone": "(626) 441-5810", "distance": 500.06730862140864}, {"id": "ECnveLvk5svmpFUTKmB9cQ", "alias": "yoko-south-pasadena", "name": "Yoko", "image_url": "", "is_closed": false, "url": "https://www.yelp.com/biz/yoko-south-pasadena?adjust_creative=y4osxHmnMD1pXQYRCP96Jg&utm_campaign=yelp_api_v3&utm_medium=api_v3_business_search&utm_source=y4osxHmnMD1pXQYRCP96Jg", "review_count": 3, "categories": [{"alias": "antiques", "title": "Antiques"}], "rating": 4.5, "coordinates": {"latitude": 34.1158752, "longitude": -118.1564407}, "transactions": [], "location": {"address1": "1018 Mission St", "address2": "", "address3": "", "city": "South Pasadena", "zip_code": "91030", "country": "US", "state": "CA", "display_address": ["1018 Mission St", "South Pasadena, CA 91030"]}, "phone": "+16264414758", "display_phone": "(626) 441-4758", "distance": 562.1357842389142}, {"id": "sPHHq3GgjU554njE8h4cqw", "alias": "st-james-parish-day-school-south-pasadena", "name": "St James Parish Day School", "image_url": "https://s3-media2.fl.yelpcdn.com/bphoto/TYPOgxZq80q-g08XHdICvw/o.jpg", "is_closed": false, "url": "https://www.yelp.com/biz/st-james-parish-day-school-south-pasadena?adjust_creative=y4osxHmnMD1pXQYRCP96Jg&utm_campaign=yelp_api_v3&utm_medium=api_v3_business_search&utm_source=y4osxHmnMD1pXQYRCP96Jg", "review_count": 17, "categories": [{"alias": "preschools", "title": "Preschools"}], "rating": 4.5, "coordinates": {"latitude": 34.1116523742676, "longitude": -118.153533935547}, "transactions": [], "location": {"address1": "1325 Monterey Rd", "address2": "", "address3": "", "city": "South Pasadena", "zip_code": "91030", "country": "US", "state": "CA", "display_address": ["1325 Monterey Rd", "South Pasadena, CA 91030"]}, "phone": "+16267996906", "display_phone": "(626) 799-6906", "distance": 567.815163491334}, {"id": "cPKuadPKnP5nJjGBcasBNw", "alias": "st-james-episcopal-church-south-pasadena", "name": "St James Episcopal Church", "image_url": "", "is_closed": false, "url": "https://www.yelp.com/biz/st-james-episcopal-church-south-pasadena?adjust_creative=y4osxHmnMD1pXQYRCP96Jg&utm_campaign=yelp_api_v3&utm_medium=api_v3_business_search&utm_source=y4osxHmnMD1pXQYRCP96Jg", "review_count": 5, "categories": [{"alias": "churches", "title": "Churches"}], "rating": 5.0, "coordinates": {"latitude": 34.1116523742676, "longitude": -118.153533935547}, "transactions": [], "location": {"address1": "1325 Monterey Rd", "address2": "", "address3": "", "city": "South Pasadena", "zip_code": "91030", "country": "US", "state": "CA", "display_address": ["1325 Monterey Rd", "South Pasadena, CA 91030"]}, "phone": "+16267999194", "display_phone": "(626) 799-9194", "distance": 567.815163491334}, {"id": "C0axRunMv0iDOAbV1u19BA", "alias": "mission-street-yoga-south-pasadena-2", "name": "Mission Street Yoga", "image_url": "https://s3-media2.fl.yelpcdn.com/bphoto/-Joxv8Ti_jCAwtqp7JAk4Q/o.jpg", "is_closed": false, "url": "https://www.yelp.com/biz/mission-street-yoga-south-pasadena-2?adjust_creative=y4osxHmnMD1pXQYRCP96Jg&utm_campaign=yelp_api_v3&utm_medium=api_v3_business_search&utm_source=y4osxHmnMD1pXQYRCP96Jg", "review_count": 76, "categories": [{"alias": "yoga", "title": "Yoga"}, {"alias": "pilates", "title": "Pilates"}], "rating": 4.0, "coordinates": {"latitude": 34.1156051, "longitude": -118.1565616}, "transactions": [], "location": {"address1": "1017 Mission St", "address2": null, "address3": "", "city": "South Pasadena", "zip_code": "91030", "country": "US", "state": "CA", "display_address": ["1017 Mission St", "South Pasadena, CA 91030"]}, "phone": "+16264411144", "display_phone": "(626) 441-1144", "distance": 577.861163471605}, {"id": "7zS_o_W3kuK51evHYodI7w", "alias": "kaldi-coffee-and-tea-south-pasadena", "name": "Kaldi Coffee and Tea", "image_url": "https://s3-media1.fl.yelpcdn.com/bphoto/YJbLPCLVYKq7TIHAkkayxg/o.jpg", "is_closed": false, "url": "https://www.yelp.com/biz/kaldi-coffee-and-tea-south-pasadena?adjust_creative=y4osxHmnMD1pXQYRCP96Jg&utm_campaign=yelp_api_v3&utm_medium=api_v3_business_search&utm_source=y4osxHmnMD1pXQYRCP96Jg", "review_count": 258, "categories": [{"alias": "coffee", "title": "Coffee & Tea"}], "rating": 3.5, "coordinates": {"latitude": 34.1145751, "longitude": -118.1565436}, "transactions": [], "price": "$", "location": {"address1": "1019 El Centro St", "address2": "", "address3": "", "city": "South Pasadena", "zip_code": "91030", "country": "US", "state": "CA", "display_address": ["1019 El Centro St", "South Pasadena, CA 91030"]}, "phone": "+16264035951", "display_phone": "(626) 403-5951", "distance": 592.6855337710658}, {"id": "hOUKg3rFtJr_DjuRQB4Ikw", "alias": "fit-fax-south-pasadena-2", "name": "Fit-Fax", "image_url": "https://s3-media1.fl.yelpcdn.com/bphoto/4SQr9Hk9zIStOmxq-8x4rA/o.jpg", "is_closed": false, "url": "https://www.yelp.com/biz/fit-fax-south-pasadena-2?adjust_creative=y4osxHmnMD1pXQYRCP96Jg&utm_campaign=yelp_api_v3&utm_medium=api_v3_business_search&utm_source=y4osxHmnMD1pXQYRCP96Jg", "review_count": 22, "categories": [{"alias": "nutritionists", "title": "Nutritionists"}, {"alias": "weightlosscenters", "title": "Weight Loss Centers"}, {"alias": "healthtrainers", "title": "Trainers"}], "rating": 5.0, "coordinates": {"latitude": 34.11446, "longitude": -118.15644}, "transactions": [], "location": {"address1": "1003 Diamond Ave", "address2": "Ste 201", "address3": "", "city": "South Pasadena", "zip_code": "91030", "country": "US", "state": "CA", "display_address": ["1003 Diamond Ave", "Ste 201", "South Pasadena, CA 91030"]}, "phone": "+16266033028", "display_phone": "(626) 603-3028", "distance": 594.2517305601996}, {"id": "JOf_7brTmT07_rBZCdHJ5w", "alias": "griffins-of-kinsale-south-pasadena", "name": "Griffins of Kinsale", "image_url": "https://s3-media4.fl.yelpcdn.com/bphoto/WrOOFewzmxL9aJwSStxXEw/o.jpg", "is_closed": false, "url": "https://www.yelp.com/biz/griffins-of-kinsale-south-pasadena?adjust_creative=y4osxHmnMD1pXQYRCP96Jg&utm_campaign=yelp_api_v3&utm_medium=api_v3_business_search&utm_source=y4osxHmnMD1pXQYRCP96Jg", "review_count": 264, "categories": [{"alias": "bars", "title": "Bars"}, {"alias": "irish", "title": "Irish"}, {"alias": "musicvenues", "title": "Music Venues"}], "rating": 4.0, "coordinates": {"latitude": 34.1156044, "longitude": -118.1566696}, "transactions": [], "price": "$$", "location": {"address1": "1007 Mission St", "address2": "", "address3": "", "city": "South Pasadena", "zip_code": "91030", "country": "US", "state": "CA", "display_address": ["1007 Mission St", "South Pasadena, CA 91030"]}, "phone": "+16267990926", "display_phone": "(626) 799-0926", "distance": 602.7586784985101}, {"id": "dUdqZg3sO1biXhW03ypzog", "alias": "la-monarca-bakery-south-pasadena-2", "name": "La Monarca Bakery", "image_url": "https://s3-media2.fl.yelpcdn.com/bphoto/F6gvplqBXyZ-8VaLYfktkg/o.jpg", "is_closed": false, "url": "https://www.yelp.com/biz/la-monarca-bakery-south-pasadena-2?adjust_creative=y4osxHmnMD1pXQYRCP96Jg&utm_campaign=yelp_api_v3&utm_medium=api_v3_business_search&utm_source=y4osxHmnMD1pXQYRCP96Jg", "review_count": 363, "categories": [{"alias": "bakeries", "title": "Bakeries"}, {"alias": "coffee", "title": "Coffee & Tea"}, {"alias": "mexican", "title": "Mexican"}], "rating": 4.0, "coordinates": {"latitude": 34.115639, "longitude": -118.157018}, "transactions": [], "price": "$", "location": {"address1": "1001 Mission St", "address2": "", "address3": "", "city": "South Pasadena", "zip_code": "91030", "country": "US", "state": "CA", "display_address": ["1001 Mission St", "South Pasadena, CA 91030"]}, "phone": "+16264036860", "display_phone": "(626) 403-6860", "distance": 620.5713488535063}, {"id": "Th6yjmBd4w5zCv3rfgLoeQ", "alias": "south-pasadena-farmers-market-south-pasadena-2", "name": "South Pasadena Farmers' Market", "image_url": "https://s3-media4.fl.yelpcdn.com/bphoto/GiEwCplis9O63scWNyGYRQ/o.jpg", "is_closed": false, "url": "https://www.yelp.com/biz/south-pasadena-farmers-market-south-pasadena-2?adjust_creative=y4osxHmnMD1pXQYRCP96Jg&utm_campaign=yelp_api_v3&utm_medium=api_v3_business_search&utm_source=y4osxHmnMD1pXQYRCP96Jg", "review_count": 243, "categories": [{"alias": "farmersmarket", "title": "Farmers Market"}], "rating": 4.5, "coordinates": {"latitude": 34.1154873, "longitude": -118.1573307}, "transactions": [], "price": "$$", "location": {"address1": "905 Meridian Ave", "address2": "", "address3": "", "city": "South Pasadena", "zip_code": "91030", "country": "US", "state": "CA", "display_address": ["905 Meridian Ave", "South Pasadena, CA 91030"]}, "phone": "+16264032820", "display_phone": "(626) 403-2820", "distance": 625.3233724790867}, {"id": "cxyCkaZzM8JuAZ7uPtJwxg", "alias": "salsa-hiphop-dance-and-fitness-south-pasadena", "name": "Salsa HipHop Dance & Fitness", "image_url": "https://s3-media1.fl.yelpcdn.com/bphoto/OhMJ3ViiaECdxXnf_XIQoA/o.jpg", "is_closed": false, "url": "https://www.yelp.com/biz/salsa-hiphop-dance-and-fitness-south-pasadena?adjust_creative=y4osxHmnMD1pXQYRCP96Jg&utm_campaign=yelp_api_v3&utm_medium=api_v3_business_search&utm_source=y4osxHmnMD1pXQYRCP96Jg", "review_count": 2, "categories": [{"alias": "dancestudio", "title": "Dance Studios"}, {"alias": "theater", "title": "Performing Arts"}], "rating": 5.0, "coordinates": {"latitude": 34.110264, "longitude": -118.151001}, "transactions": [], "location": {"address1": "1315 Fair Oaks Ave", "address2": "Ste 104", "address3": "", "city": "South Pasadena", "zip_code": "91030", "country": "US", "state": "CA", "display_address": ["1315 Fair Oaks Ave", "Ste 104", "South Pasadena, CA 91030"]}, "phone": "+13235436780", "display_phone": "(323) 543-6780", "distance": 656.464248397196}, {"id": "aq4Vc3PHkJraiqwSn43Qcg", "alias": "pointe-by-pointe-dance-studio-south-pasadena-2", "name": "Pointe by Pointe Dance Studio", "image_url": "https://s3-media2.fl.yelpcdn.com/bphoto/RLlpep0yRwH8RWs6Jo_h5g/o.jpg", "is_closed": false, "url": "https://www.yelp.com/biz/pointe-by-pointe-dance-studio-south-pasadena-2?adjust_creative=y4osxHmnMD1pXQYRCP96Jg&utm_campaign=yelp_api_v3&utm_medium=api_v3_business_search&utm_source=y4osxHmnMD1pXQYRCP96Jg", "review_count": 7, "categories": [{"alias": "dancestudio", "title": "Dance Studios"}], "rating": 5.0, "coordinates": {"latitude": 34.110263, "longitude": -118.151}, "transactions": [], "location": {"address1": "1315 Fair Oaks Ave", "address2": "Ste 104", "address3": "", "city": "South Pasadena", "zip_code": "91030", "country": "US", "state": "CA", "display_address": ["1315 Fair Oaks Ave", "Ste 104", "South Pasadena, CA 91030"]}, "phone": "+18185542651", "display_phone": "(818) 554-2651", "distance": 656.464248397196}, {"id": "bwyDqjSZib7L8IhnCxIvyw", "alias": "oak-tree-inn-south-pasadena", "name": "Oak Tree Inn", "image_url": "https://s3-media2.fl.yelpcdn.com/bphoto/46KLUTJb5ptrI60zZ6PH5A/o.jpg", "is_closed": false, "url": "https://www.yelp.com/biz/oak-tree-inn-south-pasadena?adjust_creative=y4osxHmnMD1pXQYRCP96Jg&utm_campaign=yelp_api_v3&utm_medium=api_v3_business_search&utm_source=y4osxHmnMD1pXQYRCP96Jg", "review_count": 321, "categories": [{"alias": "chinese", "title": "Chinese"}, {"alias": "seafood", "title": "Seafood"}, {"alias": "venues", "title": "Venues & Event Spaces"}], "rating": 3.5, "coordinates": {"latitude": 34.1101493965535, "longitude": -118.150778089585}, "transactions": [], "price": "$$", "location": {"address1": "1315 Fair Oaks Ave", "address2": "", "address3": "", "city": "South Pasadena", "zip_code": "91030", "country": "US", "state": "CA", "display_address": ["1315 Fair Oaks Ave", "South Pasadena, CA 91030"]}, "phone": "+13236822882", "display_phone": "(323) 682-2882", "distance": 663.1384299502915}, {"id": "aZpoe0_IIOR6xImfLRcPcw", "alias": "bistro-de-la-gare-south-pasadena", "name": "Bistro de la Gare", "image_url": "https://s3-media2.fl.yelpcdn.com/bphoto/kZ_FAtVN0O4NptXnZiscGQ/o.jpg", "is_closed": false, "url": "https://www.yelp.com/biz/bistro-de-la-gare-south-pasadena?adjust_creative=y4osxHmnMD1pXQYRCP96Jg&utm_campaign=yelp_api_v3&utm_medium=api_v3_business_search&utm_source=y4osxHmnMD1pXQYRCP96Jg", "review_count": 418, "categories": [{"alias": "french", "title": "French"}, {"alias": "italian", "title": "Italian"}, {"alias": "bars", "title": "Bars"}], "rating": 4.0, "coordinates": {"latitude": 34.1148512379256, "longitude": -118.157458146905}, "transactions": ["pickup"], "price": "$$", "location": {"address1": "921 Meridian Ave", "address2": "", "address3": "", "city": "South Pasadena", "zip_code": "91030", "country": "US", "state": "CA", "display_address": ["921 Meridian Ave", "South Pasadena, CA 91030"]}, "phone": "+16267998828", "display_phone": "(626) 799-8828", "distance": 673.4436829888122}, {"id": "_DCajI5P_-cGG3c1C_XrrQ", "alias": "retreat-south-pasadena-3", "name": "Retreat", "image_url": "https://s3-media2.fl.yelpcdn.com/bphoto/sRRzVsrqQhrq4sfuyQvbQA/o.jpg", "is_closed": false, "url": "https://www.yelp.com/biz/retreat-south-pasadena-3?adjust_creative=y4osxHmnMD1pXQYRCP96Jg&utm_campaign=yelp_api_v3&utm_medium=api_v3_business_search&utm_source=y4osxHmnMD1pXQYRCP96Jg", "review_count": 18, "categories": [{"alias": "jewelry", "title": "Jewelry"}, {"alias": "stationery", "title": "Cards & Stationery"}, {"alias": "homedecor", "title": "Home Decor"}], "rating": 5.0, "coordinates": {"latitude": 34.11588, "longitude": -118.15748}, "transactions": [], "price": "$$", "location": {"address1": "950 Mission St", "address2": null, "address3": "", "city": "South Pasadena", "zip_code": "91030", "country": "US", "state": "CA", "display_address": ["950 Mission St", "South Pasadena, CA 91030"]}, "phone": "+16266393365", "display_phone": "(626) 639-3365", "distance": 683.7191335360221}, {"id": "f_GVNE46ZPQhiXV9aPTxEQ", "alias": "south-pasadena-gold-line-station-south-pasadena", "name": "South Pasadena Gold Line Station", "image_url": "https://s3-media1.fl.yelpcdn.com/bphoto/N09HYCvY_-X3h766aOzZLw/o.jpg", "is_closed": false, "url": "https://www.yelp.com/biz/south-pasadena-gold-line-station-south-pasadena?adjust_creative=y4osxHmnMD1pXQYRCP96Jg&utm_campaign=yelp_api_v3&utm_medium=api_v3_business_search&utm_source=y4osxHmnMD1pXQYRCP96Jg", "review_count": 156, "categories": [{"alias": "publictransport", "title": "Public Transportation"}], "rating": 4.0, "coordinates": {"latitude": 34.1152660227009, "longitude": -118.157795587174}, "transactions": [], "location": {"address1": "625 Fair Oaks Ave", "address2": "", "address3": "", "city": "South Pasadena", "zip_code": "91030", "country": "US", "state": "CA", "display_address": ["625 Fair Oaks Ave", "South Pasadena, CA 91030"]}, "phone": "+16267990080", "display_phone": "(626) 799-0080", "distance": 696.2391763441395}, {"id": "DVbO1kyvxV-im3SwlffltQ", "alias": "nicoles-market-and-cafe-south-pasadena", "name": "Nicole's Market & Cafe", "image_url": "https://s3-media3.fl.yelpcdn.com/bphoto/kWG5H7AjMqb1mmCPF7NHxQ/o.jpg", "is_closed": false, "url": "https://www.yelp.com/biz/nicoles-market-and-cafe-south-pasadena?adjust_creative=y4osxHmnMD1pXQYRCP96Jg&utm_campaign=yelp_api_v3&utm_medium=api_v3_business_search&utm_source=y4osxHmnMD1pXQYRCP96Jg", "review_count": 291, "categories": [{"alias": "cheese", "title": "Cheese Shops"}, {"alias": "french", "title": "French"}, {"alias": "breakfast_brunch", "title": "Breakfast & Brunch"}], "rating": 4.0, "coordinates": {"latitude": 34.1148554131908, "longitude": -118.157764236194}, "transactions": [], "price": "$$", "location": {"address1": "921 Meridian Ave", "address2": "Unit B", "address3": "", "city": "South Pasadena", "zip_code": "91030", "country": "US", "state": "CA", "display_address": ["921 Meridian Ave", "Unit B", "South Pasadena, CA 91030"]}, "phone": "+16264035751", "display_phone": "(626) 403-5751", "distance": 700.9487732887507}, {"id": "96hfyZgks0_VBHti02O5Fw", "alias": "art-work-place-south-pasadena-2", "name": "Art Work Place", "image_url": "https://s3-media3.fl.yelpcdn.com/bphoto/6cP3bq6_XOVsUqtHxItDHA/o.jpg", "is_closed": false, "url": "https://www.yelp.com/biz/art-work-place-south-pasadena-2?adjust_creative=y4osxHmnMD1pXQYRCP96Jg&utm_campaign=yelp_api_v3&utm_medium=api_v3_business_search&utm_source=y4osxHmnMD1pXQYRCP96Jg", "review_count": 10, "categories": [{"alias": "artclasses", "title": "Art Classes"}], "rating": 4.5, "coordinates": {"latitude": 34.1096548, "longitude": -118.1499854}, "transactions": [], "location": {"address1": "1414 Fair Oaks Ave", "address2": "Ste 1B", "address3": "", "city": "South Pasadena", "zip_code": "91030", "country": "US", "state": "CA", "display_address": ["1414 Fair Oaks Ave", "Ste 1B", "South Pasadena, CA 91030"]}, "phone": "+16265785626", "display_phone": "(626) 578-5626", "distance": 717.2577385505899}, {"id": "KcJZuL8ZQmhkBrEPynQCkw", "alias": "south-pasadena-middle-school-south-pasadena", "name": "South Pasadena Middle School", "image_url": "https://s3-media2.fl.yelpcdn.com/bphoto/-XdNtoy0f0l1qlfztgHbhQ/o.jpg", "is_closed": false, "url": "https://www.yelp.com/biz/south-pasadena-middle-school-south-pasadena?adjust_creative=y4osxHmnMD1pXQYRCP96Jg&utm_campaign=yelp_api_v3&utm_medium=api_v3_business_search&utm_source=y4osxHmnMD1pXQYRCP96Jg", "review_count": 4, "categories": [{"alias": "highschools", "title": "Middle Schools & High Schools"}], "rating": 3.5, "coordinates": {"latitude": 34.108723, "longitude": -118.1501851}, "transactions": [], "location": {"address1": "1500 Fair Oaks Ave", "address2": "", "address3": "", "city": "South Pasadena", "zip_code": "91030", "country": "US", "state": "CA", "display_address": ["1500 Fair Oaks Ave", "South Pasadena, CA 91030"]}, "phone": "+16264415830", "display_phone": "(626) 441-5830", "distance": 894.3322378861162}, {"id": "-8Fc8gf-AIJhi2fFnwWSrQ", "alias": "se\u00f1or-fish-south-pasadena-2", "name": "Se\u00f1or Fish", "image_url": "https://s3-media4.fl.yelpcdn.com/bphoto/YGXYzXbG6Mvii-rKs82XmA/o.jpg", "is_closed": false, "url": "https://www.yelp.com/biz/se%C3%B1or-fish-south-pasadena-2?adjust_creative=y4osxHmnMD1pXQYRCP96Jg&utm_campaign=yelp_api_v3&utm_medium=api_v3_business_search&utm_source=y4osxHmnMD1pXQYRCP96Jg", "review_count": 345, "categories": [{"alias": "mexican", "title": "Mexican"}, {"alias": "seafood", "title": "Seafood"}, {"alias": "bars", "title": "Bars"}], "rating": 3.0, "coordinates": {"latitude": 34.1158449, "longitude": -118.1627385}, "transactions": [], "price": "$", "location": {"address1": "618 Mission St", "address2": "", "address3": "", "city": "South Pasadena", "zip_code": "91030", "country": "US", "state": "CA", "display_address": ["618 Mission St", "South Pasadena, CA 91030"]}, "phone": "+16264030145", "display_phone": "(626) 403-0145", "distance": 1155.295215799132}, {"id": "zPa7UtrcA1nKbMdqD-qT-w", "alias": "trader-joes-south-pasadena-3", "name": "Trader Joe's", "image_url": "https://s3-media1.fl.yelpcdn.com/bphoto/oyHOQ1_twhn-7dVy258SSw/o.jpg", "is_closed": false, "url": "https://www.yelp.com/biz/trader-joes-south-pasadena-3?adjust_creative=y4osxHmnMD1pXQYRCP96Jg&utm_campaign=yelp_api_v3&utm_medium=api_v3_business_search&utm_source=y4osxHmnMD1pXQYRCP96Jg", "review_count": 216, "categories": [{"alias": "grocery", "title": "Grocery"}], "rating": 3.5, "coordinates": {"latitude": 34.11538, "longitude": -118.16291}, "transactions": [], "price": "$$", "location": {"address1": "613 Mission St", "address2": "", "address3": "", "city": "South Pasadena", "zip_code": "91030", "country": "US", "state": "CA", "display_address": ["613 Mission St", "South Pasadena, CA 91030"]}, "phone": "+16264416263", "display_phone": "(626) 441-6263", "distance": 1170.0163117063587}, {"id": "JJy0zaguQSs18MCzIlCQ-w", "alias": "bikram-yoga-south-pasadena-south-pasadena", "name": "Bikram Yoga South Pasadena", "image_url": "https://s3-media2.fl.yelpcdn.com/bphoto/1AE6OnAV0Y_d-877PqsF4Q/o.jpg", "is_closed": false, "url": "https://www.yelp.com/biz/bikram-yoga-south-pasadena-south-pasadena?adjust_creative=y4osxHmnMD1pXQYRCP96Jg&utm_campaign=yelp_api_v3&utm_medium=api_v3_business_search&utm_source=y4osxHmnMD1pXQYRCP96Jg", "review_count": 143, "categories": [{"alias": "yoga", "title": "Yoga"}], "rating": 4.0, "coordinates": {"latitude": 34.11598, "longitude": -118.16392}, "transactions": [], "location": {"address1": "526 Mission St", "address2": null, "address3": "", "city": "South Pasadena", "zip_code": "91030", "country": "US", "state": "CA", "display_address": ["526 Mission St", "South Pasadena, CA 91030"]}, "phone": "+16267995656", "display_phone": "(626) 799-5656", "distance": 1252.295001511269}, {"id": "aAx4jsMi36g4onXTTjRxLg", "alias": "massage-villa-south-pasadena-2", "name": "Massage Villa", "image_url": "https://s3-media3.fl.yelpcdn.com/bphoto/piWSi-MG4R2SM3yA9ZPR1w/o.jpg", "is_closed": false, "url": "https://www.yelp.com/biz/massage-villa-south-pasadena-2?adjust_creative=y4osxHmnMD1pXQYRCP96Jg&utm_campaign=yelp_api_v3&utm_medium=api_v3_business_search&utm_source=y4osxHmnMD1pXQYRCP96Jg", "review_count": 69, "categories": [{"alias": "massage", "title": "Massage"}], "rating": 4.0, "coordinates": {"latitude": 34.103945, "longitude": -118.1511873}, "transactions": [], "price": "$", "location": {"address1": "1437 Huntington Dr", "address2": "", "address3": "", "city": "South Pasadena", "zip_code": "91030", "country": "US", "state": "CA", "display_address": ["1437 Huntington Dr", "South Pasadena, CA 91030"]}, "phone": "+16267999990", "display_phone": "(626) 799-9990", "distance": 1365.1965560757526}, {"id": "2r6wPU_ZPXIGIWr8daxLeA", "alias": "oneonta-cooperative-nursery-school-south-pasadena", "name": "Oneonta Cooperative Nursery School", "image_url": "https://s3-media3.fl.yelpcdn.com/bphoto/epPrUlMjKfTXYp8LaXlXqg/o.jpg", "is_closed": false, "url": "https://www.yelp.com/biz/oneonta-cooperative-nursery-school-south-pasadena?adjust_creative=y4osxHmnMD1pXQYRCP96Jg&utm_campaign=yelp_api_v3&utm_medium=api_v3_business_search&utm_source=y4osxHmnMD1pXQYRCP96Jg", "review_count": 38, "categories": [{"alias": "preschools", "title": "Preschools"}], "rating": 4.5, "coordinates": {"latitude": 34.108292, "longitude": -118.137747}, "transactions": [], "location": {"address1": "1515 Garfield Ave", "address2": "", "address3": "", "city": "South Pasadena", "zip_code": "91030", "country": "US", "state": "CA", "display_address": ["1515 Garfield Ave", "South Pasadena, CA 91030"]}, "phone": "+16267993105", "display_phone": "(626) 799-3105", "distance": 1445.4566871731445}, {"id": "ybITl5L2qfKF4JdWUXg9MA", "alias": "road2recovery-psychotherapy-with-april-nelson-afoa-lmft-south-pasadena", "name": "road2recovery psychotherapy with April Nelson Afoa, LMFT", "image_url": "https://s3-media3.fl.yelpcdn.com/bphoto/73Il6EF_m972pC10KS2JUA/o.jpg", "is_closed": false, "url": "https://www.yelp.com/biz/road2recovery-psychotherapy-with-april-nelson-afoa-lmft-south-pasadena?adjust_creative=y4osxHmnMD1pXQYRCP96Jg&utm_campaign=yelp_api_v3&utm_medium=api_v3_business_search&utm_source=y4osxHmnMD1pXQYRCP96Jg", "review_count": 3, "categories": [{"alias": "c_and_mh", "title": "Counseling & Mental Health"}], "rating": 5.0, "coordinates": {"latitude": 34.1044729227422, "longitude": -118.143248234203}, "transactions": [], "location": {"address1": "1910 Huntington Dr", "address2": "Room 2", "address3": "Road2recovery Psychotherapy", "city": "South Pasadena", "zip_code": "91030", "country": "US", "state": "CA", "display_address": ["1910 Huntington Dr", "Room 2", "Road2recovery Psychotherapy", "South Pasadena, CA 91030"]}, "phone": "+17143483978", "display_phone": "(714) 348-3978", "distance": 1446.7205181980892}, {"id": "s9HncjoBd8PWfKM2NBX2KA", "alias": "rasta-taco-south-pasadena", "name": "Rasta Taco", "image_url": "https://s3-media1.fl.yelpcdn.com/bphoto/H78gaLBctKuoH2PMsAOIbQ/o.jpg", "is_closed": false, "url": "https://www.yelp.com/biz/rasta-taco-south-pasadena?adjust_creative=y4osxHmnMD1pXQYRCP96Jg&utm_campaign=yelp_api_v3&utm_medium=api_v3_business_search&utm_source=y4osxHmnMD1pXQYRCP96Jg", "review_count": 41, "categories": [{"alias": "catering", "title": "Caterers"}], "rating": 4.0, "coordinates": {"latitude": 34.1039851, "longitude": -118.1426814}, "transactions": [], "location": {"address1": "1929 Huntington Dr", "address2": "", "address3": "", "city": "South Pasadena", "zip_code": "91030", "country": "US", "state": "CA", "display_address": ["1929 Huntington Dr", "South Pasadena, CA 91030"]}, "phone": "+18669672782", "display_phone": "(866) 967-2782", "distance": 1518.6591656432342}, {"id": "ngZNhB2XH3BnyOTXnYE_GQ", "alias": "cos-and-pi-south-pasadena", "name": "Cos&Pi", "image_url": "https://s3-media4.fl.yelpcdn.com/bphoto/Jyvp4IAJk2YHTZwjJuAwRg/o.jpg", "is_closed": false, "url": "https://www.yelp.com/biz/cos-and-pi-south-pasadena?adjust_creative=y4osxHmnMD1pXQYRCP96Jg&utm_campaign=yelp_api_v3&utm_medium=api_v3_business_search&utm_source=y4osxHmnMD1pXQYRCP96Jg", "review_count": 599, "categories": [{"alias": "breakfast_brunch", "title": "Breakfast & Brunch"}, {"alias": "coffee", "title": "Coffee & Tea"}], "rating": 4.5, "coordinates": {"latitude": 34.1123880414319, "longitude": -118.169041532451}, "transactions": [], "price": "$$", "location": {"address1": "303 Pasadena Ave", "address2": null, "address3": "", "city": "South Pasadena", "zip_code": "91030", "country": "US", "state": "CA", "display_address": ["303 Pasadena Ave", "South Pasadena, CA 91030"]}, "phone": "+16264606030", "display_phone": "(626) 460-6030", "distance": 1753.5626919520003}, {"id": "RPpqYod4aSADsYKYdYC39A", "alias": "susanne-hollis-inc-south-pasadena", "name": "Susanne Hollis Inc", "image_url": "https://s3-media4.fl.yelpcdn.com/bphoto/jhp2ZlZhhDv8DA0IiYP67g/o.jpg", "is_closed": false, "url": "https://www.yelp.com/biz/susanne-hollis-inc-south-pasadena?adjust_creative=y4osxHmnMD1pXQYRCP96Jg&utm_campaign=yelp_api_v3&utm_medium=api_v3_business_search&utm_source=y4osxHmnMD1pXQYRCP96Jg", "review_count": 1, "categories": [{"alias": "furniture", "title": "Furniture Stores"}, {"alias": "homedecor", "title": "Home Decor"}, {"alias": "rugs", "title": "Rugs"}], "rating": 5.0, "coordinates": {"latitude": 34.11249, "longitude": -118.16997}, "transactions": [], "price": "$$$", "location": {"address1": "230 Pasadena Ave", "address2": "", "address3": "", "city": "South Pasadena", "zip_code": "91030", "country": "US", "state": "CA", "display_address": ["230 Pasadena Ave", "South Pasadena, CA 91030"]}, "phone": "+16264410346", "display_phone": "(626) 441-0346", "distance": 1868.0508319417302}, {"id": "nF4UTHKW5F9g4iAVJMmmLg", "alias": "pedal-spin-studio-south-pasadena", "name": "Pedal Spin Studio", "image_url": "https://s3-media3.fl.yelpcdn.com/bphoto/UBfyXG3SFkDIXmHDTyiAoQ/o.jpg", "is_closed": false, "url": "https://www.yelp.com/biz/pedal-spin-studio-south-pasadena?adjust_creative=y4osxHmnMD1pXQYRCP96Jg&utm_campaign=yelp_api_v3&utm_medium=api_v3_business_search&utm_source=y4osxHmnMD1pXQYRCP96Jg", "review_count": 98, "categories": [{"alias": "cyclingclasses", "title": "Cycling Classes"}], "rating": 4.0, "coordinates": {"latitude": 34.1117, "longitude": -118.17036}, "transactions": [], "location": {"address1": "266 Monterey Rd", "address2": "", "address3": "", "city": "South Pasadena", "zip_code": "91030", "country": "US", "state": "CA", "display_address": ["266 Monterey Rd", "South Pasadena, CA 91030"]}, "phone": "+13235501501", "display_phone": "(323) 550-1501", "distance": 1897.3261236084738}, {"id": "vXvtsTX4-gPmu7WS3vkNJg", "alias": "celebration-kids-south-pasadena", "name": "Celebration Kids", "image_url": "https://s3-media4.fl.yelpcdn.com/bphoto/BCUrxzQOXYZm6scQ_9H3PQ/o.jpg", "is_closed": false, "url": "https://www.yelp.com/biz/celebration-kids-south-pasadena?adjust_creative=y4osxHmnMD1pXQYRCP96Jg&utm_campaign=yelp_api_v3&utm_medium=api_v3_business_search&utm_source=y4osxHmnMD1pXQYRCP96Jg", "review_count": 27, "categories": [{"alias": "childcare", "title": "Child Care & Day Care"}], "rating": 4.5, "coordinates": {"latitude": 34.11045, "longitude": -118.17584}, "transactions": [], "location": {"address1": "1101 Arroyo Verde Rd", "address2": null, "address3": null, "city": "South Pasadena", "zip_code": "91030", "country": "US", "state": "CA", "display_address": ["1101 Arroyo Verde Rd", "South Pasadena, CA 91030"]}, "phone": "+13232589890", "display_phone": "(323) 258-9890", "distance": 2453.586230448904}]