[{"id": "t2UX5J0Hz3RzxQGZ-RnbhQ", "alias": "dentists-of-south-pasadena-south-pasadena", "name": "Dentists of South Pasadena", "image_url": "https://s3-media2.fl.yelpcdn.com/bphoto/qosFQXSfKReR2SaPMwafLg/o.jpg", "is_closed": false, "url": "https://www.yelp.com/biz/dentists-of-south-pasadena-south-pasadena?adjust_creative=y4osxHmnMD1pXQYRCP96Jg&utm_campaign=yelp_api_v3&utm_medium=api_v3_business_search&utm_source=y4osxHmnMD1pXQYRCP96Jg", "review_count": 89, "categories": [{"alias": "oralsurgeons", "title": "Oral Surgeons"}, {"alias": "generaldentistry", "title": "General Dentistry"}, {"alias": "cosmeticdentists", "title": "Cosmetic Dentists"}], "rating": 4.5, "coordinates": {"latitude": 34.1163114630728, "longitude": -118.15054460367}, "transactions": [], "location": {"address1": "813 Fair Oaks Ave", "address2": null, "address3": null, "city": "South Pasadena", "zip_code": "91030", "country": "US", "state": "CA", "display_address": ["813 Fair Oaks Ave", "South Pasadena, CA 91030"]}, "phone": "+16265930053", "display_phone": "(626) 593-0053", "distance": 32.55673720995592}, {"id": "Q4mkrwkdnM16A_COv-FkqQ", "alias": "city-dental-south-pasadena", "name": "City Dental", "image_url": "https://s3-media3.fl.yelpcdn.com/bphoto/NMKIRDu1ifo73KmtuHAaag/o.jpg", "is_closed": false, "url": "https://www.yelp.com/biz/city-dental-south-pasadena?adjust_creative=y4osxHmnMD1pXQYRCP96Jg&utm_campaign=yelp_api_v3&utm_medium=api_v3_business_search&utm_source=y4osxHmnMD1pXQYRCP96Jg", "review_count": 10, "categories": [{"alias": "orthodontists", "title": "Orthodontists"}], "rating": 4.5, "coordinates": {"latitude": 34.117351, "longitude": -118.150802}, "transactions": [], "location": {"address1": "711 Fair Oaks Ave", "address2": "Ste B", "address3": "", "city": "South Pasadena", "zip_code": "91030", "country": "US", "state": "CA", "display_address": ["711 Fair Oaks Ave", "Ste B", "South Pasadena, CA 91030"]}, "phone": "+16267999909", "display_phone": "(626) 799-9909", "distance": 131.09032624900206}, {"id": "Iik-k0KydQHJTo6dhGIMTQ", "alias": "little-crown-pediatric-dentistry-mission-south-pasadena", "name": "Little Crown Pediatric Dentistry - Mission", "image_url": "", "is_closed": false, "url": "https://www.yelp.com/biz/little-crown-pediatric-dentistry-mission-south-pasadena?adjust_creative=y4osxHmnMD1pXQYRCP96Jg&utm_campaign=yelp_api_v3&utm_medium=api_v3_business_search&utm_source=y4osxHmnMD1pXQYRCP96Jg", "review_count": 2, "categories": [{"alias": "pediatric_dentists", "title": "Pediatric Dentists"}, {"alias": "orthodontists", "title": "Orthodontists"}], "rating": 5.0, "coordinates": {"latitude": 34.115671, "longitude": -118.1519553}, "transactions": [], "location": {"address1": "1427 Mission St", "address2": "", "address3": null, "city": "South Pasadena", "zip_code": "91030", "country": "US", "state": "CA", "display_address": ["1427 Mission St", "South Pasadena, CA 91030"]}, "phone": "+16264031800", "display_phone": "(626) 403-1800", "distance": 156.3951136290477}, {"id": "5f0fIUkcvSMzOw19ncmE-A", "alias": "peter-s-joe-dds-south-pasadena-4", "name": "Peter S Joe, DDS", "image_url": "https://s3-media1.fl.yelpcdn.com/bphoto/YgBhE7TvCbizIwbyZVDKPg/o.jpg", "is_closed": false, "url": "https://www.yelp.com/biz/peter-s-joe-dds-south-pasadena-4?adjust_creative=y4osxHmnMD1pXQYRCP96Jg&utm_campaign=yelp_api_v3&utm_medium=api_v3_business_search&utm_source=y4osxHmnMD1pXQYRCP96Jg", "review_count": 131, "categories": [{"alias": "pediatric_dentists", "title": "Pediatric Dentists"}], "rating": 4.5, "coordinates": {"latitude": 34.1156495, "longitude": -118.1522778}, "transactions": [], "location": {"address1": "1427 Mission St", "address2": "", "address3": "Little Crown Pediatric Dentistry", "city": "South Pasadena", "zip_code": "91030", "country": "US", "state": "CA", "display_address": ["1427 Mission St", "Little Crown Pediatric Dentistry", "South Pasadena, CA 91030"]}, "phone": "+16264031800", "display_phone": "(626) 403-1800", "distance": 157.65010245754996}, {"id": "H9vaUHDtadwSzw9jv0zAaw", "alias": "john-w-chu-dmd-south-pasadena", "name": "John W Chu, DMD", "image_url": "https://s3-media1.fl.yelpcdn.com/bphoto/Xm3xItjdoZ6e1YLQ_jXxhQ/o.jpg", "is_closed": false, "url": "https://www.yelp.com/biz/john-w-chu-dmd-south-pasadena?adjust_creative=y4osxHmnMD1pXQYRCP96Jg&utm_campaign=yelp_api_v3&utm_medium=api_v3_business_search&utm_source=y4osxHmnMD1pXQYRCP96Jg", "review_count": 44, "categories": [{"alias": "generaldentistry", "title": "General Dentistry"}, {"alias": "endodontists", "title": "Endodontists"}, {"alias": "cosmeticdentists", "title": "Cosmetic Dentists"}], "rating": 5.0, "coordinates": {"latitude": 34.11412, "longitude": -118.14993}, "transactions": [], "location": {"address1": "1016 Fair Oaks Ave", "address2": "", "address3": "", "city": "South Pasadena", "zip_code": "91030", "country": "US", "state": "CA", "display_address": ["1016 Fair Oaks Ave", "South Pasadena, CA 91030"]}, "phone": "+16267990852", "display_phone": "(626) 799-0852", "distance": 222.03294646328746}, {"id": "bAtG7PogYlGck2BXUhnpKw", "alias": "mission-dental-south-pasadena", "name": "Mission Dental", "image_url": "https://s3-media1.fl.yelpcdn.com/bphoto/MfVtS-L0hkwy3nk7cKtfwQ/o.jpg", "is_closed": false, "url": "https://www.yelp.com/biz/mission-dental-south-pasadena?adjust_creative=y4osxHmnMD1pXQYRCP96Jg&utm_campaign=yelp_api_v3&utm_medium=api_v3_business_search&utm_source=y4osxHmnMD1pXQYRCP96Jg", "review_count": 38, "categories": [{"alias": "cosmeticdentists", "title": "Cosmetic Dentists"}, {"alias": "generaldentistry", "title": "General Dentistry"}, {"alias": "orthodontists", "title": "Orthodontists"}], "rating": 4.0, "coordinates": {"latitude": 34.115482, "longitude": -118.152748}, "transactions": [], "location": {"address1": "1401 Mission St", "address2": "Unit C4", "address3": "", "city": "South Pasadena", "zip_code": "91030", "country": "US", "state": "CA", "display_address": ["1401 Mission St", "Unit C4", "South Pasadena, CA 91030"]}, "phone": "+16263990204", "display_phone": "(626) 399-0204", "distance": 242.63759012494023}, {"id": "k7vySAkGdADywrn9eI2PMg", "alias": "tso-j-vincent-dmd-facp-south-pasadena", "name": "Tso J Vincent, DMD, FACP", "image_url": "https://s3-media3.fl.yelpcdn.com/bphoto/qNZ6A2tMeXFE8ME2crY7ww/o.jpg", "is_closed": false, "url": "https://www.yelp.com/biz/tso-j-vincent-dmd-facp-south-pasadena?adjust_creative=y4osxHmnMD1pXQYRCP96Jg&utm_campaign=yelp_api_v3&utm_medium=api_v3_business_search&utm_source=y4osxHmnMD1pXQYRCP96Jg", "review_count": 13, "categories": [{"alias": "generaldentistry", "title": "General Dentistry"}, {"alias": "cosmeticdentists", "title": "Cosmetic Dentists"}, {"alias": "prosthodontists", "title": "Prosthodontists"}], "rating": 4.5, "coordinates": {"latitude": 34.1179695129395, "longitude": -118.153442382812}, "transactions": [], "location": {"address1": "627 Fremont Ave", "address2": "", "address3": "", "city": "South Pasadena", "zip_code": "91030", "country": "US", "state": "CA", "display_address": ["627 Fremont Ave", "South Pasadena, CA 91030"]}, "phone": "+16267996255", "display_phone": "(626) 799-6255", "distance": 352.54624517168503}, {"id": "HGorkGkP3d6mQ2v8X8aTOg", "alias": "south-pasadena-dental-south-pasadena-3", "name": "South Pasadena Dental", "image_url": "https://s3-media2.fl.yelpcdn.com/bphoto/J5QYUBrX3i_EZtcs1Ok9zQ/o.jpg", "is_closed": false, "url": "https://www.yelp.com/biz/south-pasadena-dental-south-pasadena-3?adjust_creative=y4osxHmnMD1pXQYRCP96Jg&utm_campaign=yelp_api_v3&utm_medium=api_v3_business_search&utm_source=y4osxHmnMD1pXQYRCP96Jg", "review_count": 141, "categories": [{"alias": "generaldentistry", "title": "General Dentistry"}, {"alias": "cosmeticdentists", "title": "Cosmetic Dentists"}, {"alias": "endodontists", "title": "Endodontists"}], "rating": 3.5, "coordinates": {"latitude": 34.112231, "longitude": -118.152726}, "transactions": [], "location": {"address1": "1140 Fremont Ave", "address2": "", "address3": "", "city": "South Pasadena", "zip_code": "91030", "country": "US", "state": "CA", "display_address": ["1140 Fremont Ave", "South Pasadena, CA 91030"]}, "phone": "+16263250331", "display_phone": "(626) 325-0331", "distance": 484.730097842081}, {"id": "04vBKfilMPxaHVJEHwLZWA", "alias": "south-pasadena-oral-surgery-south-pasadena", "name": "South Pasadena Oral Surgery", "image_url": "https://s3-media3.fl.yelpcdn.com/bphoto/DWbfyoiPLi5PzAe2qSvZZA/o.jpg", "is_closed": false, "url": "https://www.yelp.com/biz/south-pasadena-oral-surgery-south-pasadena?adjust_creative=y4osxHmnMD1pXQYRCP96Jg&utm_campaign=yelp_api_v3&utm_medium=api_v3_business_search&utm_source=y4osxHmnMD1pXQYRCP96Jg", "review_count": 52, "categories": [{"alias": "oralsurgeons", "title": "Oral Surgeons"}], "rating": 4.0, "coordinates": {"latitude": 34.1122299, "longitude": -118.15348}, "transactions": [], "location": {"address1": "1141 Fremont Ave", "address2": null, "address3": "", "city": "South Pasadena", "zip_code": "91030", "country": "US", "state": "CA", "display_address": ["1141 Fremont Ave", "South Pasadena, CA 91030"]}, "phone": "+16267992999", "display_phone": "(626) 799-2999", "distance": 521.0491257997978}, {"id": "SsKYuJMRltx-VEOxUJaGtw", "alias": "fair-oaks-orthodontics-south-pasadena", "name": "Fair Oaks Orthodontics", "image_url": "https://s3-media2.fl.yelpcdn.com/bphoto/z2gMeEectVESMqAqGc0cNQ/o.jpg", "is_closed": false, "url": "https://www.yelp.com/biz/fair-oaks-orthodontics-south-pasadena?adjust_creative=y4osxHmnMD1pXQYRCP96Jg&utm_campaign=yelp_api_v3&utm_medium=api_v3_business_search&utm_source=y4osxHmnMD1pXQYRCP96Jg", "review_count": 48, "categories": [{"alias": "orthodontists", "title": "Orthodontists"}], "rating": 5.0, "coordinates": {"latitude": 34.110347, "longitude": -118.149848}, "transactions": [], "location": {"address1": "1318 Fair Oaks Ave", "address2": "Ste A", "address3": "", "city": "South Pasadena", "zip_code": "91030", "country": "US", "state": "CA", "display_address": ["1318 Fair Oaks Ave", "Ste A", "South Pasadena, CA 91030"]}, "phone": "+16267955978", "display_phone": "(626) 795-5978", "distance": 641.5200744468407}, {"id": "hHF6f3-BACkQk6Qc9O4Rvw", "alias": "healthy-smile-family-dentistry-south-pasadena-3", "name": "Healthy Smile Family Dentistry", "image_url": "https://s3-media3.fl.yelpcdn.com/bphoto/5-NqONQCGI4ZPqQ5ehRZDQ/o.jpg", "is_closed": false, "url": "https://www.yelp.com/biz/healthy-smile-family-dentistry-south-pasadena-3?adjust_creative=y4osxHmnMD1pXQYRCP96Jg&utm_campaign=yelp_api_v3&utm_medium=api_v3_business_search&utm_source=y4osxHmnMD1pXQYRCP96Jg", "review_count": 83, "categories": [{"alias": "generaldentistry", "title": "General Dentistry"}], "rating": 4.0, "coordinates": {"latitude": 34.110263, "longitude": -118.151}, "transactions": [], "location": {"address1": "1315 Fair Oaks Ave", "address2": "Ste 103", "address3": "", "city": "South Pasadena", "zip_code": "91030", "country": "US", "state": "CA", "display_address": ["1315 Fair Oaks Ave", "Ste 103", "South Pasadena, CA 91030"]}, "phone": "+16267998068", "display_phone": "(626) 799-8068", "distance": 656.464248397196}, {"id": "WRYBIxga9XDY1JPxXXYhAQ", "alias": "smilehaus-orthodontics-south-pasadena-2", "name": "SmileHaus Orthodontics", "image_url": "https://s3-media2.fl.yelpcdn.com/bphoto/ImxEzvj6xu4Bf5MnNMWEcQ/o.jpg", "is_closed": false, "url": "https://www.yelp.com/biz/smilehaus-orthodontics-south-pasadena-2?adjust_creative=y4osxHmnMD1pXQYRCP96Jg&utm_campaign=yelp_api_v3&utm_medium=api_v3_business_search&utm_source=y4osxHmnMD1pXQYRCP96Jg", "review_count": 39, "categories": [{"alias": "orthodontists", "title": "Orthodontists"}], "rating": 5.0, "coordinates": {"latitude": 34.109756, "longitude": -118.14993}, "transactions": [], "location": {"address1": "1414 Fair Oaks Ave", "address2": "Ste 7", "address3": "", "city": "South Pasadena", "zip_code": "91030", "country": "US", "state": "CA", "display_address": ["1414 Fair Oaks Ave", "Ste 7", "South Pasadena, CA 91030"]}, "phone": "+16267885911", "display_phone": "(626) 788-5911", "distance": 706.2417589159072}, {"id": "q9fJGMEubnhnLx72WU1VkA", "alias": "elements-dental-office-south-pasadena", "name": "Elements Dental Office", "image_url": "", "is_closed": false, "url": "https://www.yelp.com/biz/elements-dental-office-south-pasadena?adjust_creative=y4osxHmnMD1pXQYRCP96Jg&utm_campaign=yelp_api_v3&utm_medium=api_v3_business_search&utm_source=y4osxHmnMD1pXQYRCP96Jg", "review_count": 18, "categories": [{"alias": "dentists", "title": "Dentists"}], "rating": 5.0, "coordinates": {"latitude": 34.109619, "longitude": -118.149856}, "transactions": [], "location": {"address1": "1414 Fair Oaks Ave", "address2": "Ste 9", "address3": "", "city": "South Pasadena", "zip_code": "91030", "country": "US", "state": "CA", "display_address": ["1414 Fair Oaks Ave", "Ste 9", "South Pasadena, CA 91030"]}, "phone": "+16264410899", "display_phone": "(626) 441-0899", "distance": 712.695510181396}, {"id": "PaizSO2evm4usMGcsRMEBQ", "alias": "sinai-dental-practice-south-pasadena-2", "name": "Sinai Dental Practice", "image_url": "https://s3-media3.fl.yelpcdn.com/bphoto/_xGiga9S30U4_mcdTBFJZw/o.jpg", "is_closed": false, "url": "https://www.yelp.com/biz/sinai-dental-practice-south-pasadena-2?adjust_creative=y4osxHmnMD1pXQYRCP96Jg&utm_campaign=yelp_api_v3&utm_medium=api_v3_business_search&utm_source=y4osxHmnMD1pXQYRCP96Jg", "review_count": 23, "categories": [{"alias": "generaldentistry", "title": "General Dentistry"}], "rating": 4.5, "coordinates": {"latitude": 34.115888, "longitude": -118.159503}, "transactions": [], "location": {"address1": "820 Mission St", "address2": "Unit A", "address3": null, "city": "South Pasadena", "zip_code": "91030", "country": "US", "state": "CA", "display_address": ["820 Mission St", "Unit A", "South Pasadena, CA 91030"]}, "phone": "+16264059090", "display_phone": "(626) 405-9090", "distance": 847.5431921341565}, {"id": "jxksHYwGIb_hyuKdkckmmA", "alias": "wu-orthodontics-south-pasadena-2", "name": "Wu Orthodontics", "image_url": "https://s3-media1.fl.yelpcdn.com/bphoto/1or5AshvzQMuBxlTINL27g/o.jpg", "is_closed": false, "url": "https://www.yelp.com/biz/wu-orthodontics-south-pasadena-2?adjust_creative=y4osxHmnMD1pXQYRCP96Jg&utm_campaign=yelp_api_v3&utm_medium=api_v3_business_search&utm_source=y4osxHmnMD1pXQYRCP96Jg", "review_count": 116, "categories": [{"alias": "orthodontists", "title": "Orthodontists"}], "rating": 5.0, "coordinates": {"latitude": 34.1079763, "longitude": -118.150763}, "transactions": [], "location": {"address1": "1525 Fair Oaks Ave", "address2": null, "address3": "", "city": "South Pasadena", "zip_code": "91030", "country": "US", "state": "CA", "display_address": ["1525 Fair Oaks Ave", "South Pasadena, CA 91030"]}, "phone": "+16264036500", "display_phone": "(626) 403-6500", "distance": 904.3183518301322}, {"id": "7oNNrBTqcB0D24x4FZ_a2A", "alias": "little-crown-pediatric-dentistry-south-pasadena-2", "name": "Little Crown Pediatric Dentistry", "image_url": "", "is_closed": false, "url": "https://www.yelp.com/biz/little-crown-pediatric-dentistry-south-pasadena-2?adjust_creative=y4osxHmnMD1pXQYRCP96Jg&utm_campaign=yelp_api_v3&utm_medium=api_v3_business_search&utm_source=y4osxHmnMD1pXQYRCP96Jg", "review_count": 5, "categories": [{"alias": "orthodontists", "title": "Orthodontists"}, {"alias": "pediatric_dentists", "title": "Pediatric Dentists"}], "rating": 4.0, "coordinates": {"latitude": 34.10798, "longitude": -118.15086}, "transactions": [], "location": {"address1": "1525 Fair Oaks Ave", "address2": null, "address3": "", "city": "South Pasadena", "zip_code": "91030", "country": "US", "state": "CA", "display_address": ["1525 Fair Oaks Ave", "South Pasadena, CA 91030"]}, "phone": "+16264036500", "display_phone": "(626) 403-6500", "distance": 905.8713939669138}, {"id": "Cj2-rnTUD8rWGoZ4SziAIw", "alias": "mary-chess-abelson-dds-south-pasadena", "name": "Mary Chess-Abelson, DDS", "image_url": "https://s3-media3.fl.yelpcdn.com/bphoto/dwfCXNcl0X0sNqVQ0n9JPg/o.jpg", "is_closed": false, "url": "https://www.yelp.com/biz/mary-chess-abelson-dds-south-pasadena?adjust_creative=y4osxHmnMD1pXQYRCP96Jg&utm_campaign=yelp_api_v3&utm_medium=api_v3_business_search&utm_source=y4osxHmnMD1pXQYRCP96Jg", "review_count": 40, "categories": [{"alias": "generaldentistry", "title": "General Dentistry"}], "rating": 4.5, "coordinates": {"latitude": 34.123396, "longitude": -118.161409}, "transactions": [], "location": {"address1": "500 Columbia St", "address2": "", "address3": "", "city": "South Pasadena", "zip_code": "91030", "country": "US", "state": "CA", "display_address": ["500 Columbia St", "South Pasadena, CA 91030"]}, "phone": "+13236821133", "display_phone": "(323) 682-1133", "distance": 1273.266187344519}, {"id": "W7-mDbaA4a9GMNpLjyWIQQ", "alias": "new-vision-dental-south-pasadena", "name": "New Vision Dental", "image_url": "https://s3-media2.fl.yelpcdn.com/bphoto/eE9L1EFlr5r670ZL6_-8xQ/o.jpg", "is_closed": false, "url": "https://www.yelp.com/biz/new-vision-dental-south-pasadena?adjust_creative=y4osxHmnMD1pXQYRCP96Jg&utm_campaign=yelp_api_v3&utm_medium=api_v3_business_search&utm_source=y4osxHmnMD1pXQYRCP96Jg", "review_count": 250, "categories": [{"alias": "cosmeticdentists", "title": "Cosmetic Dentists"}, {"alias": "generaldentistry", "title": "General Dentistry"}, {"alias": "orthodontists", "title": "Orthodontists"}], "rating": 4.0, "coordinates": {"latitude": 34.104579, "longitude": -118.15129}, "transactions": [], "location": {"address1": "1506 Huntington Dr", "address2": "", "address3": "", "city": "South Pasadena", "zip_code": "91030", "country": "US", "state": "CA", "display_address": ["1506 Huntington Dr", "South Pasadena, CA 91030"]}, "phone": "+16267992888", "display_phone": "(626) 799-2888", "distance": 1289.8066282620766}, {"id": "FgfDy6H_GtsyYLafprzejg", "alias": "gin-h-goei-dds-south-pasadena", "name": "Gin H Goei, DDS", "image_url": "https://s3-media4.fl.yelpcdn.com/bphoto/y1D85mA0Ph58cXHoARTWZg/o.jpg", "is_closed": false, "url": "https://www.yelp.com/biz/gin-h-goei-dds-south-pasadena?adjust_creative=y4osxHmnMD1pXQYRCP96Jg&utm_campaign=yelp_api_v3&utm_medium=api_v3_business_search&utm_source=y4osxHmnMD1pXQYRCP96Jg", "review_count": 23, "categories": [{"alias": "dentists", "title": "Dentists"}], "rating": 5.0, "coordinates": {"latitude": 34.1046, "longitude": -118.14519}, "transactions": [], "location": {"address1": "1730 Huntington Dr", "address2": "Ste 202", "address3": "", "city": "South Pasadena", "zip_code": "91030", "country": "US", "state": "CA", "display_address": ["1730 Huntington Dr", "Ste 202", "South Pasadena, CA 91030"]}, "phone": "+16264414339", "display_phone": "(626) 441-4339", "distance": 1374.0454607052984}, {"id": "GTMO2Vmv6wIPpkTDtJEWRw", "alias": "huntington-dental-excellence-south-pasadena", "name": "Huntington Dental Excellence", "image_url": "https://s3-media2.fl.yelpcdn.com/bphoto/hTuklpFv9k__0yTKcJBEdA/o.jpg", "is_closed": false, "url": "https://www.yelp.com/biz/huntington-dental-excellence-south-pasadena?adjust_creative=y4osxHmnMD1pXQYRCP96Jg&utm_campaign=yelp_api_v3&utm_medium=api_v3_business_search&utm_source=y4osxHmnMD1pXQYRCP96Jg", "review_count": 48, "categories": [{"alias": "generaldentistry", "title": "General Dentistry"}, {"alias": "cosmeticdentists", "title": "Cosmetic Dentists"}, {"alias": "orthodontists", "title": "Orthodontists"}], "rating": 5.0, "coordinates": {"latitude": 34.1046, "longitude": -118.14519}, "transactions": [], "location": {"address1": "1730 Huntington Dr", "address2": "Ste 202", "address3": "", "city": "South Pasadena", "zip_code": "91030", "country": "US", "state": "CA", "display_address": ["1730 Huntington Dr", "Ste 202", "South Pasadena, CA 91030"]}, "phone": "+16264414339", "display_phone": "(626) 441-4339", "distance": 1374.0454607052984}, {"id": "UkbQ7DG_pydX-nkFp_4H1g", "alias": "hala-al-tarifi-dds-south-pasadena", "name": "Hala Al-Tarifi, DDS", "image_url": "https://s3-media3.fl.yelpcdn.com/bphoto/Q5oNQEn_qKziH7ecmsV2JQ/o.jpg", "is_closed": false, "url": "https://www.yelp.com/biz/hala-al-tarifi-dds-south-pasadena?adjust_creative=y4osxHmnMD1pXQYRCP96Jg&utm_campaign=yelp_api_v3&utm_medium=api_v3_business_search&utm_source=y4osxHmnMD1pXQYRCP96Jg", "review_count": 34, "categories": [{"alias": "cosmeticdentists", "title": "Cosmetic Dentists"}, {"alias": "generaldentistry", "title": "General Dentistry"}], "rating": 4.5, "coordinates": {"latitude": 34.104599, "longitude": -118.1451874}, "transactions": [], "location": {"address1": "1730 Huntington Dr", "address2": "Ste 102", "address3": "", "city": "South Pasadena", "zip_code": "91030", "country": "US", "state": "CA", "display_address": ["1730 Huntington Dr", "Ste 102", "South Pasadena, CA 91030"]}, "phone": "+16267992990", "display_phone": "(626) 799-2990", "distance": 1374.0454607052984}, {"id": "bpFnQXr-V_zBLDftKLaSNA", "alias": "fremont-dentistry-south-pasadena", "name": "Fremont Dentistry", "image_url": "https://s3-media2.fl.yelpcdn.com/bphoto/aZ6RxIdMUqUGPASEimEtOg/o.jpg", "is_closed": false, "url": "https://www.yelp.com/biz/fremont-dentistry-south-pasadena?adjust_creative=y4osxHmnMD1pXQYRCP96Jg&utm_campaign=yelp_api_v3&utm_medium=api_v3_business_search&utm_source=y4osxHmnMD1pXQYRCP96Jg", "review_count": 2, "categories": [{"alias": "generaldentistry", "title": "General Dentistry"}], "rating": 3.0, "coordinates": {"latitude": 34.103279, "longitude": -118.152633}, "transactions": [], "location": {"address1": "1915 Fremont Ave", "address2": "", "address3": "", "city": "South Pasadena", "zip_code": "91030", "country": "US", "state": "CA", "display_address": ["1915 Fremont Ave", "South Pasadena, CA 91030"]}, "phone": "+13233408882", "display_phone": "(323) 340-8882", "distance": 1433.2643108115622}, {"id": "RV8ipMkz75O1Ni2pSCru5A", "alias": "adrian-sanchez-dds-south-pasadena-6", "name": "Adrian Sanchez, DDS", "image_url": "https://s3-media3.fl.yelpcdn.com/bphoto/6cQWxm6fHTWc87abc43C_Q/o.jpg", "is_closed": false, "url": "https://www.yelp.com/biz/adrian-sanchez-dds-south-pasadena-6?adjust_creative=y4osxHmnMD1pXQYRCP96Jg&utm_campaign=yelp_api_v3&utm_medium=api_v3_business_search&utm_source=y4osxHmnMD1pXQYRCP96Jg", "review_count": 21, "categories": [{"alias": "generaldentistry", "title": "General Dentistry"}, {"alias": "orthodontists", "title": "Orthodontists"}], "rating": 4.5, "coordinates": {"latitude": 34.1035566035213, "longitude": -118.154183439287}, "transactions": [], "location": {"address1": "1260 Huntington Dr", "address2": "Ste 100", "address3": "", "city": "South Pasadena", "zip_code": "91030", "country": "US", "state": "CA", "display_address": ["1260 Huntington Dr", "Ste 100", "South Pasadena, CA 91030"]}, "phone": "+13232556698", "display_phone": "(323) 255-6698", "distance": 1439.8557557034796}, {"id": "gkBVBXUiPJdIigWLei_9ig", "alias": "raymond-kwok-dmd-and-associates-south-pasadena-3", "name": "Raymond Kwok, DMD and Associates", "image_url": "https://s3-media3.fl.yelpcdn.com/bphoto/lj1ExzwXDVpnizahQSfXoA/o.jpg", "is_closed": false, "url": "https://www.yelp.com/biz/raymond-kwok-dmd-and-associates-south-pasadena-3?adjust_creative=y4osxHmnMD1pXQYRCP96Jg&utm_campaign=yelp_api_v3&utm_medium=api_v3_business_search&utm_source=y4osxHmnMD1pXQYRCP96Jg", "review_count": 14, "categories": [{"alias": "cosmeticdentists", "title": "Cosmetic Dentists"}, {"alias": "generaldentistry", "title": "General Dentistry"}, {"alias": "endodontists", "title": "Endodontists"}], "rating": 4.5, "coordinates": {"latitude": 34.10461, "longitude": -118.14294}, "transactions": [], "location": {"address1": "1928 Huntington Dr", "address2": "", "address3": null, "city": "South Pasadena", "zip_code": "91030", "country": "US", "state": "CA", "display_address": ["1928 Huntington Dr", "South Pasadena, CA 91030"]}, "phone": "+16267991252", "display_phone": "(626) 799-1252", "distance": 1458.4496465422246}, {"id": "mnsz5TOtxYTpMM5WQPpGtw", "alias": "richard-fuentes-dds-south-pasadena", "name": "Richard Fuentes,DDS", "image_url": "", "is_closed": false, "url": "https://www.yelp.com/biz/richard-fuentes-dds-south-pasadena?adjust_creative=y4osxHmnMD1pXQYRCP96Jg&utm_campaign=yelp_api_v3&utm_medium=api_v3_business_search&utm_source=y4osxHmnMD1pXQYRCP96Jg", "review_count": 2, "categories": [{"alias": "oralsurgeons", "title": "Oral Surgeons"}], "rating": 4.0, "coordinates": {"latitude": 34.1046104, "longitude": -118.1429367}, "transactions": [], "location": {"address1": "1928 Huntington Dr", "address2": "Ste A", "address3": "", "city": "South Pasadena", "zip_code": "91030", "country": "US", "state": "CA", "display_address": ["1928 Huntington Dr", "Ste A", "South Pasadena, CA 91030"]}, "phone": "+16264415000", "display_phone": "(626) 441-5000", "distance": 1458.4496465422246}, {"id": "X_IHTsFoxAHkLwzE46friA", "alias": "tony-s-hwang-dds-south-pasadena", "name": "Tony S Hwang, DDS", "image_url": "https://s3-media1.fl.yelpcdn.com/bphoto/ZfMCubfKBRY7_XxnuI1pXQ/o.jpg", "is_closed": false, "url": "https://www.yelp.com/biz/tony-s-hwang-dds-south-pasadena?adjust_creative=y4osxHmnMD1pXQYRCP96Jg&utm_campaign=yelp_api_v3&utm_medium=api_v3_business_search&utm_source=y4osxHmnMD1pXQYRCP96Jg", "review_count": 44, "categories": [{"alias": "pediatric_dentists", "title": "Pediatric Dentists"}], "rating": 5.0, "coordinates": {"latitude": 34.103748, "longitude": -118.142227}, "transactions": [], "location": {"address1": "1941 Huntington Dr", "address2": "Ste A", "address3": "", "city": "South Pasadena", "zip_code": "91030", "country": "US", "state": "CA", "display_address": ["1941 Huntington Dr", "Ste A", "South Pasadena, CA 91030"]}, "phone": "+16263081807", "display_phone": "(626) 308-1807", "distance": 1549.362307574003}, {"id": "79TceZecsbMsC0OpvegbHA", "alias": "jennifer-chen-dds-south-pasadena", "name": "Jennifer Chen, DDS", "image_url": "https://s3-media2.fl.yelpcdn.com/bphoto/Bq1CzSkjPOkL2lFqZuhWkQ/o.jpg", "is_closed": false, "url": "https://www.yelp.com/biz/jennifer-chen-dds-south-pasadena?adjust_creative=y4osxHmnMD1pXQYRCP96Jg&utm_campaign=yelp_api_v3&utm_medium=api_v3_business_search&utm_source=y4osxHmnMD1pXQYRCP96Jg", "review_count": 13, "categories": [{"alias": "cosmeticdentists", "title": "Cosmetic Dentists"}, {"alias": "generaldentistry", "title": "General Dentistry"}, {"alias": "pediatric_dentists", "title": "Pediatric Dentists"}], "rating": 4.5, "coordinates": {"latitude": 34.103748, "longitude": -118.142227}, "transactions": [], "location": {"address1": "1941 Huntington Dr", "address2": "Ste H", "address3": "", "city": "South Pasadena", "zip_code": "91030", "country": "US", "state": "CA", "display_address": ["1941 Huntington Dr", "Ste H", "South Pasadena, CA 91030"]}, "phone": "+16264411139", "display_phone": "(626) 441-1139", "distance": 1549.362307574003}, {"id": "y37KMOya1VoZeoY25ZnI0w", "alias": "kent-wilson-dds-south-pasadena", "name": "Kent Wilson, DDS", "image_url": "", "is_closed": false, "url": "https://www.yelp.com/biz/kent-wilson-dds-south-pasadena?adjust_creative=y4osxHmnMD1pXQYRCP96Jg&utm_campaign=yelp_api_v3&utm_medium=api_v3_business_search&utm_source=y4osxHmnMD1pXQYRCP96Jg", "review_count": 12, "categories": [{"alias": "generaldentistry", "title": "General Dentistry"}, {"alias": "cosmeticdentists", "title": "Cosmetic Dentists"}], "rating": 5.0, "coordinates": {"latitude": 34.103748, "longitude": -118.142227}, "transactions": [], "location": {"address1": "1941 Huntington Dr", "address2": "Ste B", "address3": "", "city": "South Pasadena", "zip_code": "91030", "country": "US", "state": "CA", "display_address": ["1941 Huntington Dr", "Ste B", "South Pasadena, CA 91030"]}, "phone": "+16264411167", "display_phone": "(626) 441-1167", "distance": 1549.3732212423984}, {"id": "4Tdn5_17onsSARlw7FPYDA", "alias": "huntington-oral-surgery-and-implant-center-south-pasadena", "name": "Huntington Oral Surgery and Implant Center", "image_url": "https://s3-media2.fl.yelpcdn.com/bphoto/IYN-NpqCdN_xU2ke3xPuig/o.jpg", "is_closed": false, "url": "https://www.yelp.com/biz/huntington-oral-surgery-and-implant-center-south-pasadena?adjust_creative=y4osxHmnMD1pXQYRCP96Jg&utm_campaign=yelp_api_v3&utm_medium=api_v3_business_search&utm_source=y4osxHmnMD1pXQYRCP96Jg", "review_count": 4, "categories": [{"alias": "oralsurgeons", "title": "Oral Surgeons"}], "rating": 5.0, "coordinates": {"latitude": 34.1050051, "longitude": -118.1381426}, "transactions": [], "location": {"address1": "2050 Huntington Dr", "address2": "Ste B", "address3": null, "city": "South Pasadena", "zip_code": "91030", "country": "US", "state": "CA", "display_address": ["2050 Huntington Dr", "Ste B", "South Pasadena, CA 91030"]}, "phone": "+16264412331", "display_phone": "(626) 441-2331", "distance": 1650.1190764567173}, {"id": "nVTf4k-W_0WWOAN53ejJFQ", "alias": "petty-richard-a-dds-south-pasadena", "name": "Petty Richard A,DDS", "image_url": "", "is_closed": false, "url": "https://www.yelp.com/biz/petty-richard-a-dds-south-pasadena?adjust_creative=y4osxHmnMD1pXQYRCP96Jg&utm_campaign=yelp_api_v3&utm_medium=api_v3_business_search&utm_source=y4osxHmnMD1pXQYRCP96Jg", "review_count": 9, "categories": [{"alias": "oralsurgeons", "title": "Oral Surgeons"}], "rating": 4.5, "coordinates": {"latitude": 34.1050051, "longitude": -118.1381426}, "transactions": [], "location": {"address1": "2050 Huntington Dr", "address2": "Ste B", "address3": "", "city": "South Pasadena", "zip_code": "91030", "country": "US", "state": "CA", "display_address": ["2050 Huntington Dr", "Ste B", "South Pasadena, CA 91030"]}, "phone": "+16264412255", "display_phone": "(626) 441-2255", "distance": 1650.1190764567173}, {"id": "OYk44xA0hu4EvWzOJe3YiA", "alias": "bernard-pallares-dds-south-pasadena", "name": "Bernard Pallares DDS", "image_url": "https://s3-media2.fl.yelpcdn.com/bphoto/Ph4MyTz4NV9AJwE-2NekUQ/o.jpg", "is_closed": false, "url": "https://www.yelp.com/biz/bernard-pallares-dds-south-pasadena?adjust_creative=y4osxHmnMD1pXQYRCP96Jg&utm_campaign=yelp_api_v3&utm_medium=api_v3_business_search&utm_source=y4osxHmnMD1pXQYRCP96Jg", "review_count": 18, "categories": [{"alias": "generaldentistry", "title": "General Dentistry"}, {"alias": "cosmeticdentists", "title": "Cosmetic Dentists"}], "rating": 4.5, "coordinates": {"latitude": 34.1050051, "longitude": -118.1381426}, "transactions": [], "location": {"address1": "2050 Huntington Dr", "address2": null, "address3": null, "city": "South Pasadena", "zip_code": "91030", "country": "US", "state": "CA", "display_address": ["2050 Huntington Dr", "South Pasadena, CA 91030"]}, "phone": "+16267998918", "display_phone": "(626) 799-8918", "distance": 1650.1190764567173}, {"id": "wymtsKy3SjKIMDBwIJbHOg", "alias": "pappas-alex-p-dds-south-pasadena", "name": "Pappas Alex P DDS", "image_url": "", "is_closed": false, "url": "https://www.yelp.com/biz/pappas-alex-p-dds-south-pasadena?adjust_creative=y4osxHmnMD1pXQYRCP96Jg&utm_campaign=yelp_api_v3&utm_medium=api_v3_business_search&utm_source=y4osxHmnMD1pXQYRCP96Jg", "review_count": 5, "categories": [{"alias": "endodontists", "title": "Endodontists"}], "rating": 4.0, "coordinates": {"latitude": 34.1050051, "longitude": -118.1381426}, "transactions": [], "location": {"address1": "2050 Huntington Dr", "address2": "Ste A", "address3": "", "city": "South Pasadena", "zip_code": "91030", "country": "US", "state": "CA", "display_address": ["2050 Huntington Dr", "Ste A", "South Pasadena, CA 91030"]}, "phone": "+16264412975", "display_phone": "(626) 441-2975", "distance": 1650.1190764567173}, {"id": "5DOKWzbjc2xa0Z4L18JtIw", "alias": "james-p-pappas-dds-south-pasadena", "name": "James P Pappas, DDS", "image_url": "", "is_closed": false, "url": "https://www.yelp.com/biz/james-p-pappas-dds-south-pasadena?adjust_creative=y4osxHmnMD1pXQYRCP96Jg&utm_campaign=yelp_api_v3&utm_medium=api_v3_business_search&utm_source=y4osxHmnMD1pXQYRCP96Jg", "review_count": 4, "categories": [{"alias": "oralsurgeons", "title": "Oral Surgeons"}, {"alias": "endodontists", "title": "Endodontists"}], "rating": 4.0, "coordinates": {"latitude": 34.1049317, "longitude": -118.1379819}, "transactions": [], "location": {"address1": "2050 Huntington Dr", "address2": "Ste A", "address3": "", "city": "South Pasadena", "zip_code": "91030", "country": "US", "state": "CA", "display_address": ["2050 Huntington Dr", "Ste A", "South Pasadena, CA 91030"]}, "phone": "+16264412975", "display_phone": "(626) 441-2975", "distance": 1681.755571152947}, {"id": "1itf1pk7LbudGIA0W5HUEA", "alias": "joseph-j-hsiou-dds-south-pasadena-2", "name": "Joseph J Hsiou, DDS", "image_url": "https://s3-media2.fl.yelpcdn.com/bphoto/t0tfdgiS7qa4F25haurPZA/o.jpg", "is_closed": false, "url": "https://www.yelp.com/biz/joseph-j-hsiou-dds-south-pasadena-2?adjust_creative=y4osxHmnMD1pXQYRCP96Jg&utm_campaign=yelp_api_v3&utm_medium=api_v3_business_search&utm_source=y4osxHmnMD1pXQYRCP96Jg", "review_count": 10, "categories": [{"alias": "periodontists", "title": "Periodontists"}, {"alias": "generaldentistry", "title": "General Dentistry"}], "rating": 5.0, "coordinates": {"latitude": 34.106414, "longitude": -118.136044}, "transactions": [], "location": {"address1": "2130 Huntington Dr", "address2": "Ste 202", "address3": null, "city": "South Pasadena", "zip_code": "91030", "country": "US", "state": "CA", "display_address": ["2130 Huntington Dr", "Ste 202", "South Pasadena, CA 91030"]}, "phone": "+16264414511", "display_phone": "(626) 441-4511", "distance": 1697.8084153913867}, {"id": "lG2iVx4ZUdZeFZWfppVoqA", "alias": "california-school-of-dental-assisting-south-pasadena", "name": "California School of Dental Assisting", "image_url": "", "is_closed": false, "url": "https://www.yelp.com/biz/california-school-of-dental-assisting-south-pasadena?adjust_creative=y4osxHmnMD1pXQYRCP96Jg&utm_campaign=yelp_api_v3&utm_medium=api_v3_business_search&utm_source=y4osxHmnMD1pXQYRCP96Jg", "review_count": 1, "categories": [{"alias": "specialtyschools", "title": "Specialty Schools"}], "rating": 1.0, "coordinates": {"latitude": 34.1045799255371, "longitude": -118.151290893555}, "transactions": [], "location": {"address1": "1506 Huntington Dr", "address2": "", "address3": "", "city": "South Pasadena", "zip_code": "91030", "country": "US", "state": "CA", "display_address": ["1506 Huntington Dr", "South Pasadena, CA 91030"]}, "phone": "+16267993777", "display_phone": "(626) 799-3777", "distance": 1289.8066282620766}]