[{"id": "HlpJoRQRid5kDKTS14jSkA", "alias": "logical-rooter-and-drain-cleaning-services-south-pasadena", "name": "Logical Rooter & Drain Cleaning Services", "image_url": "https://s3-media4.fl.yelpcdn.com/bphoto/5lZ5pQqxkMgiRQfBl53-zw/o.jpg", "is_closed": false, "url": "https://www.yelp.com/biz/logical-rooter-and-drain-cleaning-services-south-pasadena?adjust_creative=y4osxHmnMD1pXQYRCP96Jg&utm_campaign=yelp_api_v3&utm_medium=api_v3_business_search&utm_source=y4osxHmnMD1pXQYRCP96Jg", "review_count": 17, "categories": [{"alias": "plumbing", "title": "Plumbing"}, {"alias": "septicservices", "title": "Septic Services"}, {"alias": "hydrojetting", "title": "Hydro-jetting"}], "rating": 5.0, "coordinates": {"latitude": 34.1173782348633, "longitude": -118.150833129883}, "transactions": [], "location": {"address1": null, "address2": null, "address3": null, "city": "South Pasadena", "zip_code": "91030", "country": "US", "state": "CA", "display_address": ["South Pasadena, CA 91030"]}, "phone": "+18006572917", "display_phone": "(800) 657-2917", "distance": 4.993195600113268}, {"id": "OUkZ0qSISOarxe3fcSRr5w", "alias": "aqc-design-and-remodel-pasadena-2", "name": "AQC Design and Remodel", "image_url": "https://s3-media4.fl.yelpcdn.com/bphoto/lsD6F_wBwY0IB26367sd8w/o.jpg", "is_closed": false, "url": "https://www.yelp.com/biz/aqc-design-and-remodel-pasadena-2?adjust_creative=y4osxHmnMD1pXQYRCP96Jg&utm_campaign=yelp_api_v3&utm_medium=api_v3_business_search&utm_source=y4osxHmnMD1pXQYRCP96Jg", "review_count": 8, "categories": [{"alias": "contractors", "title": "Contractors"}, {"alias": "interiordesign", "title": "Interior Design"}], "rating": 5.0, "coordinates": {"latitude": 34.11738, "longitude": -118.15083}, "transactions": [], "location": {"address1": null, "address2": null, "address3": "", "city": "Pasadena", "zip_code": "91030", "country": "US", "state": "CA", "display_address": ["Pasadena, CA 91030"]}, "phone": "+16262169445", "display_phone": "(626) 216-9445", "distance": 4.993195600113268}, {"id": "YYOVyJssggwqV3iM1G7T0A", "alias": "pike-construction-south-pasadena", "name": "Pike Construction", "image_url": "", "is_closed": false, "url": "https://www.yelp.com/biz/pike-construction-south-pasadena?adjust_creative=y4osxHmnMD1pXQYRCP96Jg&utm_campaign=yelp_api_v3&utm_medium=api_v3_business_search&utm_source=y4osxHmnMD1pXQYRCP96Jg", "review_count": 3, "categories": [{"alias": "contractors", "title": "Contractors"}], "rating": 3.5, "coordinates": {"latitude": 34.11738, "longitude": -118.15083}, "transactions": [], "location": {"address1": "", "address2": "", "address3": "", "city": "South Pasadena", "zip_code": "91030", "country": "US", "state": "CA", "display_address": ["South Pasadena, CA 91030"]}, "phone": "+16268649305", "display_phone": "(626) 864-9305", "distance": 4.993195600113268}, {"id": "AwplQyJ45sfwfFb8llIWrA", "alias": "nott-and-associates-south-pasadena-2", "name": "Nott & Associates", "image_url": "https://s3-media3.fl.yelpcdn.com/bphoto/7VdpNFlNi2CaEep32JzSLQ/o.jpg", "is_closed": false, "url": "https://www.yelp.com/biz/nott-and-associates-south-pasadena-2?adjust_creative=y4osxHmnMD1pXQYRCP96Jg&utm_campaign=yelp_api_v3&utm_medium=api_v3_business_search&utm_source=y4osxHmnMD1pXQYRCP96Jg", "review_count": 13, "categories": [{"alias": "architects", "title": "Architects"}, {"alias": "contractors", "title": "Contractors"}], "rating": 4.5, "coordinates": {"latitude": 34.115969, "longitude": -118.151324}, "transactions": [], "location": {"address1": "1508 Mission St", "address2": null, "address3": "", "city": "South Pasadena", "zip_code": "91030", "country": "US", "state": "CA", "display_address": ["1508 Mission St", "South Pasadena, CA 91030"]}, "phone": "+16264606172", "display_phone": "(626) 460-6172", "distance": 95.3867499510254}, {"id": "8Ha725TQVDrcrr7n43HQLA", "alias": "fessenden-pool-service-pasadena", "name": "Fessenden Pool Service", "image_url": "https://s3-media1.fl.yelpcdn.com/bphoto/TH7evwAGZRJulWRtSaca4Q/o.jpg", "is_closed": false, "url": "https://www.yelp.com/biz/fessenden-pool-service-pasadena?adjust_creative=y4osxHmnMD1pXQYRCP96Jg&utm_campaign=yelp_api_v3&utm_medium=api_v3_business_search&utm_source=y4osxHmnMD1pXQYRCP96Jg", "review_count": 6, "categories": [{"alias": "poolcleaners", "title": "Pool Cleaners"}], "rating": 4.5, "coordinates": {"latitude": 34.1163327, "longitude": -118.1528938}, "transactions": [], "location": {"address1": "1107 Fair Oaks Ave", "address2": "Ste 56", "address3": "", "city": "Pasadena", "zip_code": "91030", "country": "US", "state": "CA", "display_address": ["1107 Fair Oaks Ave", "Ste 56", "Pasadena, CA 91030"]}, "phone": "+13233977894", "display_phone": "(323) 397-7894", "distance": 240.17882658242777}, {"id": "5a99WuGVrqhfHAJFizSd9Q", "alias": "kc-and-c-concrete-pumping-south-pasadena", "name": "KC & C Concrete Pumping", "image_url": "https://s3-media4.fl.yelpcdn.com/bphoto/OQUiVrwbW8Uqs3DQ3nyJPQ/o.jpg", "is_closed": false, "url": "https://www.yelp.com/biz/kc-and-c-concrete-pumping-south-pasadena?adjust_creative=y4osxHmnMD1pXQYRCP96Jg&utm_campaign=yelp_api_v3&utm_medium=api_v3_business_search&utm_source=y4osxHmnMD1pXQYRCP96Jg", "review_count": 11, "categories": [{"alias": "contractors", "title": "Contractors"}], "rating": 4.5, "coordinates": {"latitude": 34.113773, "longitude": -118.15162}, "transactions": [], "location": {"address1": "1107 Fair Oaks Ave", "address2": "Ste 134", "address3": "", "city": "South Pasadena", "zip_code": "91030", "country": "US", "state": "CA", "display_address": ["1107 Fair Oaks Ave", "Ste 134", "South Pasadena, CA 91030"]}, "phone": "+16263990453", "display_phone": "(626) 399-0453", "distance": 285.8645793846805}, {"id": "kPOT2TBTy68l39zwWUip_w", "alias": "cynthia-bennett-and-associates-south-pasadena", "name": "Cynthia Bennett & Associates", "image_url": "https://s3-media1.fl.yelpcdn.com/bphoto/H78skr-kNJDJR2_3Kb4plQ/o.jpg", "is_closed": false, "url": "https://www.yelp.com/biz/cynthia-bennett-and-associates-south-pasadena?adjust_creative=y4osxHmnMD1pXQYRCP96Jg&utm_campaign=yelp_api_v3&utm_medium=api_v3_business_search&utm_source=y4osxHmnMD1pXQYRCP96Jg", "review_count": 4, "categories": [{"alias": "contractors", "title": "Contractors"}, {"alias": "interiordesign", "title": "Interior Design"}], "rating": 3.0, "coordinates": {"latitude": 34.11995, "longitude": -118.1507}, "transactions": [], "location": {"address1": "501 Fair Oaks Ave", "address2": "", "address3": "", "city": "South Pasadena", "zip_code": "91030", "country": "US", "state": "CA", "display_address": ["501 Fair Oaks Ave", "South Pasadena, CA 91030"]}, "phone": "+16267999701", "display_phone": "(626) 799-9701", "distance": 431.3841477658205}, {"id": "ZbfMxlBsU929mz8GpV8FZw", "alias": "abels-pool-service-south-pasadena", "name": "Abel's Pool Service", "image_url": "https://s3-media4.fl.yelpcdn.com/bphoto/aVMDLmb538uHj06j27pSCQ/o.jpg", "is_closed": false, "url": "https://www.yelp.com/biz/abels-pool-service-south-pasadena?adjust_creative=y4osxHmnMD1pXQYRCP96Jg&utm_campaign=yelp_api_v3&utm_medium=api_v3_business_search&utm_source=y4osxHmnMD1pXQYRCP96Jg", "review_count": 1, "categories": [{"alias": "poolcleaners", "title": "Pool Cleaners"}], "rating": 5.0, "coordinates": {"latitude": 34.121828666066, "longitude": -118.148853909934}, "transactions": [], "location": {"address1": "", "address2": "", "address3": "", "city": "South Pasadena", "zip_code": "91030", "country": "US", "state": "CA", "display_address": ["South Pasadena, CA 91030"]}, "phone": "+16262555421", "display_phone": "(626) 255-5421", "distance": 650.7590553743516}, {"id": "NG8Xw8DUSIcaI-_KSD_30g", "alias": "mission-tile-west-south-pasadena", "name": "Mission Tile West", "image_url": "https://s3-media3.fl.yelpcdn.com/bphoto/lWOO1VNhtXESxhdqxQwrcw/o.jpg", "is_closed": false, "url": "https://www.yelp.com/biz/mission-tile-west-south-pasadena?adjust_creative=y4osxHmnMD1pXQYRCP96Jg&utm_campaign=yelp_api_v3&utm_medium=api_v3_business_search&utm_source=y4osxHmnMD1pXQYRCP96Jg", "review_count": 51, "categories": [{"alias": "contractors", "title": "Contractors"}, {"alias": "flooring", "title": "Flooring"}], "rating": 3.5, "coordinates": {"latitude": 34.115417, "longitude": -118.158645}, "transactions": [], "location": {"address1": "853 Mission St", "address2": "", "address3": "", "city": "South Pasadena", "zip_code": "91030", "country": "US", "state": "CA", "display_address": ["853 Mission St", "South Pasadena, CA 91030"]}, "phone": "+16267994595", "display_phone": "(626) 799-4595", "distance": 771.9759813668869}, {"id": "ePWlSkjgJa0ObRStoUYbgQ", "alias": "chesbro-ornamental-pruning-south-pasadena", "name": "Chesbro Ornamental Pruning", "image_url": "", "is_closed": false, "url": "https://www.yelp.com/biz/chesbro-ornamental-pruning-south-pasadena?adjust_creative=y4osxHmnMD1pXQYRCP96Jg&utm_campaign=yelp_api_v3&utm_medium=api_v3_business_search&utm_source=y4osxHmnMD1pXQYRCP96Jg", "review_count": 1, "categories": [{"alias": "treeservices", "title": "Tree Services"}], "rating": 5.0, "coordinates": {"latitude": 34.1136399, "longitude": -118.16207}, "transactions": [], "location": {"address1": "1018 Adelaine Ave", "address2": "", "address3": "", "city": "South Pasadena", "zip_code": "91030", "country": "US", "state": "CA", "display_address": ["1018 Adelaine Ave", "South Pasadena, CA 91030"]}, "phone": "+16267994552", "display_phone": "(626) 799-4552", "distance": 1118.428535377159}, {"id": "6XUTWLl2bpytFFEC6SpiNw", "alias": "private-security-south-pasadena", "name": "Private Security", "image_url": "https://s3-media4.fl.yelpcdn.com/bphoto/mZf2661vQpWnS6LJ5LIMrA/o.jpg", "is_closed": false, "url": "https://www.yelp.com/biz/private-security-south-pasadena?adjust_creative=y4osxHmnMD1pXQYRCP96Jg&utm_campaign=yelp_api_v3&utm_medium=api_v3_business_search&utm_source=y4osxHmnMD1pXQYRCP96Jg", "review_count": 2, "categories": [{"alias": "security", "title": "Security Services"}, {"alias": "securitysystems", "title": "Security Systems"}], "rating": 5.0, "coordinates": {"latitude": 34.103829, "longitude": -118.151023}, "transactions": [], "location": {"address1": "1441 Huntington Dr", "address2": "Ste 124", "address3": "", "city": "South Pasadena", "zip_code": "91030", "country": "US", "state": "CA", "display_address": ["1441 Huntington Dr", "Ste 124", "South Pasadena, CA 91030"]}, "phone": "+18009244880", "display_phone": "(800) 924-4880", "distance": 1366.0940433837727}, {"id": "d6anvKGfzWSDgzpw38_fZQ", "alias": "garden-gnome-design-south-pasadena", "name": "Garden Gnome Design", "image_url": "https://s3-media2.fl.yelpcdn.com/bphoto/A7SFWaV3FnbJV4e-Qr1-CQ/o.jpg", "is_closed": false, "url": "https://www.yelp.com/biz/garden-gnome-design-south-pasadena?adjust_creative=y4osxHmnMD1pXQYRCP96Jg&utm_campaign=yelp_api_v3&utm_medium=api_v3_business_search&utm_source=y4osxHmnMD1pXQYRCP96Jg", "review_count": 7, "categories": [{"alias": "eventplanning", "title": "Party & Event Planning"}, {"alias": "landscapearchitects", "title": "Landscape Architects"}, {"alias": "landscaping", "title": "Landscaping"}], "rating": 5.0, "coordinates": {"latitude": 34.109293, "longitude": -118.16668}, "transactions": [], "location": {"address1": "100 Mountain Ave", "address2": null, "address3": "", "city": "South Pasadena", "zip_code": "91030", "country": "US", "state": "CA", "display_address": ["100 Mountain Ave", "South Pasadena, CA 91030"]}, "phone": "+16268723409", "display_phone": "(626) 872-3409", "distance": 1687.2764532367971}, {"id": "cyIgBCBEEa6I4Op3PWACbQ", "alias": "dms-facility-services-south-pasadena", "name": "DMS Facility Services", "image_url": "https://s3-media3.fl.yelpcdn.com/bphoto/4399SJp18sIupd_MHykWUA/o.jpg", "is_closed": false, "url": "https://www.yelp.com/biz/dms-facility-services-south-pasadena?adjust_creative=y4osxHmnMD1pXQYRCP96Jg&utm_campaign=yelp_api_v3&utm_medium=api_v3_business_search&utm_source=y4osxHmnMD1pXQYRCP96Jg", "review_count": 1, "categories": [{"alias": "landscaping", "title": "Landscaping"}, {"alias": "windowwashing", "title": "Window Washing"}, {"alias": "metalfabricators", "title": "Metal Fabricators"}], "rating": 5.0, "coordinates": {"latitude": 34.11289, "longitude": -118.17054}, "transactions": [], "location": {"address1": "1040 Arroyo Dr", "address2": null, "address3": null, "city": "South Pasadena", "zip_code": "91030", "country": "US", "state": "CA", "display_address": ["1040 Arroyo Dr", "South Pasadena, CA 91030"]}, "phone": "+16263058500", "display_phone": "(626) 305-8500", "distance": 1898.73639203959}, {"id": "9Sp6n38UQeO4sn17tHJBig", "alias": "voelker-construction-and-painting-pasadena-7", "name": "Voelker Construction and Painting", "image_url": "https://s3-media3.fl.yelpcdn.com/bphoto/8zxXHiim9z6OOJdDWXmkfg/o.jpg", "is_closed": false, "url": "https://www.yelp.com/biz/voelker-construction-and-painting-pasadena-7?adjust_creative=y4osxHmnMD1pXQYRCP96Jg&utm_campaign=yelp_api_v3&utm_medium=api_v3_business_search&utm_source=y4osxHmnMD1pXQYRCP96Jg", "review_count": 13, "categories": [{"alias": "contractors", "title": "Contractors"}, {"alias": "painters", "title": "Painters"}], "rating": 5.0, "coordinates": {"latitude": 34.14568, "longitude": -118.08793}, "transactions": [], "location": {"address1": "3016 E Colorado Blvd", "address2": "Ste 5594", "address3": "", "city": "Pasadena", "zip_code": "91030", "country": "US", "state": "CA", "display_address": ["3016 E Colorado Blvd", "Ste 5594", "Pasadena, CA 91030"]}, "phone": "+16263547139", "display_phone": "(626) 354-7139", "distance": 6615.937212814856}]